{"city":{"slug":"wachau","name":"Wachau","country":"Austria","center":[48.39227,15.52721],"n":135},"pins":[{"slug":"fx-pichler","name":"Weingut F.X. Pichler","topic":"vineyards","url":"/austria/wachau/vineyards/fx-pichler/","lat":48.38648,"lng":15.53264,"score":5.0,"classification":"Wachau DAC","grape":"Grüner Veltliner","grape_slug":"gruner-veltliner","hood":"Loiben"},{"slug":"emmerich-knoll","name":"Weingut Emmerich Knoll","topic":"vineyards","url":"/austria/wachau/vineyards/emmerich-knoll/","lat":48.38847,"lng":15.54197,"score":4.9,"classification":"Wachau DAC","grape":"Grüner Veltliner","grape_slug":"gruner-veltliner","hood":"Unterloiben"},{"slug":"prager","name":"Weingut Prager","topic":"vineyards","url":"/austria/wachau/vineyards/prager/","lat":48.39279,"lng":15.46738,"score":4.9,"classification":"Wachau DAC","grape":"Riesling","grape_slug":"riesling","hood":"Weissenkirchen"},{"slug":"nikolaihof","name":"Nikolaihof Wachau","topic":"vineyards","url":"/austria/wachau/vineyards/nikolaihof/","lat":48.39429,"lng":15.57764,"score":4.9,"classification":"Wachau DAC","grape":"Grüner Veltliner","grape_slug":"gruner-veltliner","hood":"Mautern"},{"slug":"domaene-wachau","name":"Domäne Wachau","topic":"vineyards","url":"/austria/wachau/vineyards/domaene-wachau/","lat":48.41086,"lng":15.51056,"score":4.6,"classification":"Wachau DAC","grape":"Grüner Veltliner","grape_slug":"gruner-veltliner","hood":"Dürnstein"},{"slug":"alzinger","name":"Weingut Alzinger","topic":"vineyards","url":"/austria/wachau/vineyards/alzinger/","lat":48.38764,"lng":15.54267,"score":4.8,"classification":"Wachau DAC","grape":"Grüner Veltliner","grape_slug":"gruner-veltliner","hood":"Unterloiben"},{"slug":"tegernseerhof","name":"Weingut Tegernseerhof","topic":"vineyards","url":"/austria/wachau/vineyards/tegernseerhof/","lat":48.38776,"lng":15.54299,"score":4.8,"classification":"Wachau DAC","grape":"Grüner Veltliner","grape_slug":"gruner-veltliner","hood":"Unterloiben"},{"slug":"rudi-pichler","name":"Weingut Rudi Pichler","topic":"vineyards","url":"/austria/wachau/vineyards/rudi-pichler/","lat":48.38171,"lng":15.45116,"score":4.8,"classification":"Wachau DAC","grape":"Grüner Veltliner","grape_slug":"gruner-veltliner","hood":"Wösendorf"},{"slug":"josef-jamek","name":"Weingut Josef Jamek","topic":"vineyards","url":"/austria/wachau/vineyards/josef-jamek/","lat":48.38781,"lng":15.4621,"score":4.5,"classification":"Wachau DAC","grape":"Grüner Veltliner","grape_slug":"gruner-veltliner","hood":"Joching"},{"slug":"schmelz","name":"Weingut Schmelz","topic":"vineyards","url":"/austria/wachau/vineyards/schmelz/","lat":48.38587,"lng":15.45885,"score":4.4,"classification":"Wachau DAC","grape":"Grüner Veltliner","grape_slug":"gruner-veltliner","hood":"Joching"},{"slug":"holzapfel","name":"Weingut Holzapfel Prandtauerhof","topic":"vineyards","url":"/austria/wachau/vineyards/holzapfel/","lat":48.38583,"lng":15.46033,"score":4.5,"classification":"Wachau DAC","grape":"Grüner Veltliner","grape_slug":"gruner-veltliner","hood":"Joching"},{"slug":"hoellmueller","name":"Weingut Höllmüller","topic":"vineyards","url":"/austria/wachau/vineyards/hoellmueller/","lat":48.38571,"lng":15.45934,"score":4.2,"classification":"Wachau DAC","grape":"Grüner Veltliner","grape_slug":"gruner-veltliner","hood":"Joching"},{"slug":"weinhofmeisterei-hirtzberger","name":"Weinhofmeisterei Mathias Hirtzberger","topic":"vineyards","url":"/austria/wachau/vineyards/weinhofmeisterei-hirtzberger/","lat":48.38252,"lng":15.45647,"score":4.3,"classification":"Wachau DAC","grape":"Grüner Veltliner","grape_slug":"gruner-veltliner","hood":"Wösendorf"},{"slug":"schrey","name":"Weingut Schrey","topic":"vineyards","url":"/austria/wachau/vineyards/schrey/","lat":48.38091,"lng":15.45217,"score":4.2,"classification":"Wachau DAC","grape":"Grüner Veltliner","grape_slug":"gruner-veltliner","hood":"Wösendorf"},{"slug":"machherndl","name":"Weingut Erich Machherndl","topic":"vineyards","url":"/austria/wachau/vineyards/machherndl/","lat":48.38107,"lng":15.45574,"score":4.2,"classification":"Wachau DAC","grape":"Grüner Veltliner","grape_slug":"gruner-veltliner","hood":"Wösendorf"},{"slug":"hutter","name":"Weingut Hutter Silberbichlerhof","topic":"vineyards","url":"/austria/wachau/vineyards/hutter/","lat":48.39429,"lng":15.57764,"score":4.2,"classification":"Wachau DAC","grape":"Grüner Veltliner","grape_slug":"gruner-veltliner","hood":"Mautern"},{"slug":"schneeweiss","name":"Weingut Schneeweiß","topic":"vineyards","url":"/austria/wachau/vineyards/schneeweiss/","lat":48.40903,"lng":15.44321,"score":4.2,"classification":"Wachau DAC","grape":"Grüner Veltliner","grape_slug":"gruner-veltliner","hood":"Weissenkirchen"},{"slug":"bruch","name":"Weingut Bruch","topic":"vineyards","url":"/austria/wachau/vineyards/bruch/","lat":48.37212,"lng":15.43897,"score":4.2,"classification":"Wachau DAC","grape":"Grüner Veltliner","grape_slug":"gruner-veltliner","hood":"Weissenkirchen"},{"slug":"erich-bayer","name":"Weingut Erich Bayer","topic":"vineyards","url":"/austria/wachau/vineyards/erich-bayer/","lat":48.37186,"lng":15.43893,"score":4.1,"classification":"Wachau DAC","grape":"Grüner Veltliner","grape_slug":"gruner-veltliner","hood":"Weissenkirchen"},{"slug":"bernhard-wachau","name":"Weingut Bernhard","topic":"vineyards","url":"/austria/wachau/vineyards/bernhard-wachau/","lat":48.39574,"lng":15.46611,"score":4.1,"classification":"Wachau DAC","grape":"Grüner Veltliner","grape_slug":"gruner-veltliner","hood":"Weissenkirchen"},{"slug":"forstreiter","name":"Weingut Forstreiter","topic":"vineyards","url":"/austria/wachau/vineyards/forstreiter/","lat":48.3797,"lng":15.68355,"score":4.2,"classification":"Wachau DAC","grape":"Grüner Veltliner","grape_slug":"gruner-veltliner","hood":"Hollenburg"},{"slug":"stift-goettweig","name":"Weingut Stift Göttweig","topic":"vineyards","url":"/austria/wachau/vineyards/stift-goettweig/","lat":48.3665,"lng":15.61236,"score":4.3,"classification":"Kremstal DAC","grape":"Grüner Veltliner","grape_slug":"gruner-veltliner","hood":"Furth bei Göttweig"},{"slug":"gruber-wachau","name":"Weingut Gruber Wachau","topic":"vineyards","url":"/austria/wachau/vineyards/gruber-wachau/","lat":48.40172,"lng":15.4634,"score":4.1,"classification":"Wachau DAC","grape":"Grüner Veltliner","grape_slug":"gruner-veltliner","hood":"Weissenkirchen"},{"slug":"winzer-krems","name":"Winzer Krems","topic":"vineyards","url":"/austria/wachau/vineyards/winzer-krems/","lat":48.42052,"lng":15.61843,"score":4.0,"classification":"Kremstal DAC","grape":"Grüner Veltliner","grape_slug":"gruner-veltliner","hood":"Krems"},{"slug":"hoellmueller-joching","name":"Weingut Höllmüller Joching","topic":"vineyards","url":"/austria/wachau/vineyards/hoellmueller-joching/","lat":48.38133,"lng":15.45659,"score":4.0,"classification":"Wachau DAC","grape":"Grüner Veltliner","grape_slug":"gruner-veltliner","hood":"Joching"},{"slug":"domaene-roland-chan","name":"Domäne Roland Chan","topic":"vineyards","url":"/austria/wachau/vineyards/domaene-roland-chan/","lat":48.37186,"lng":15.43893,"score":4.2,"classification":"Wachau DAC","grape":"Grüner Veltliner","grape_slug":"gruner-veltliner","hood":"Weissenkirchen"},{"slug":"loibnerhof","name":"Loibnerhof (Weingut Knoll)","topic":"vineyards","url":"/austria/wachau/vineyards/loibnerhof/","lat":48.38734,"lng":15.54207,"score":4.0,"classification":"Wachau DAC","grape":"Grüner Veltliner","grape_slug":"gruner-veltliner","hood":"Unterloiben"},{"slug":"leonhartsberger","name":"Winzerhof Leonhartsberger","topic":"vineyards","url":"/austria/wachau/vineyards/leonhartsberger/","lat":48.38826,"lng":15.54319,"score":4.0,"classification":"Wachau DAC","grape":"Grüner Veltliner","grape_slug":"gruner-veltliner","hood":"Unterloiben"},{"slug":"bioweingut-schmidl","name":"Bioweingut Schmidl","topic":"vineyards","url":"/austria/wachau/vineyards/bioweingut-schmidl/","lat":48.38887,"lng":15.54517,"score":4.1,"classification":"Wachau DAC","grape":"Grüner Veltliner","grape_slug":"gruner-veltliner","hood":"Unterloiben"},{"slug":"konrad-duernstein","name":"Weingut Konrad","topic":"vineyards","url":"/austria/wachau/vineyards/konrad-duernstein/","lat":48.38646,"lng":15.54048,"score":4.0,"classification":"Wachau DAC","grape":"Grüner Veltliner","grape_slug":"gruner-veltliner","hood":"Dürnstein"},{"slug":"grabner-wachau","name":"Weingut Grabner Wachau","topic":"vineyards","url":"/austria/wachau/vineyards/grabner-wachau/","lat":48.39821,"lng":15.50432,"score":4.0,"classification":"Wachau DAC","grape":"Grüner Veltliner","grape_slug":"gruner-veltliner","hood":"Rossatz"},{"slug":"eder-wachau","name":"Weingut Eder Wachau","topic":"vineyards","url":"/austria/wachau/vineyards/eder-wachau/","lat":48.39429,"lng":15.57764,"score":4.0,"classification":"Wachau DAC","grape":"Grüner Veltliner","grape_slug":"gruner-veltliner","hood":"Mautern"},{"slug":"piewald","name":"Weingut Familie Piewald","topic":"vineyards","url":"/austria/wachau/vineyards/piewald/","lat":48.29504,"lng":15.41689,"score":4.0,"classification":"Wachau DAC","grape":"Grüner Veltliner","grape_slug":"gruner-veltliner","hood":"Spitz"},{"slug":"jager-weissenkirchen","name":"Weingut Jäger","topic":"vineyards","url":"/austria/wachau/vineyards/jager-weissenkirchen/","lat":48.39547,"lng":15.47218,"score":4.0,"classification":"Wachau DAC","grape":"Grüner Veltliner","grape_slug":"gruner-veltliner","hood":"Weissenkirchen"},{"slug":"wachau-weingut-weixelbaum","name":"Weingut Weixelbaum","topic":"vineyards","url":"/austria/wachau/vineyards/wachau-weingut-weixelbaum/","lat":48.39547,"lng":15.47218,"score":4.0,"classification":"Wachau DAC","grape":"Grüner Veltliner","grape_slug":"gruner-veltliner","hood":"Weissenkirchen"},{"slug":"miesbauer-joching","name":"Weingut Miesbauer","topic":"vineyards","url":"/austria/wachau/vineyards/miesbauer-joching/","lat":48.38571,"lng":15.45934,"score":4.0,"classification":"Wachau DAC","grape":"Grüner Veltliner","grape_slug":"gruner-veltliner","hood":"Joching"},{"slug":"zottl","name":"Weingut Zottl","topic":"vineyards","url":"/austria/wachau/vineyards/zottl/","lat":48.39631,"lng":15.4732,"score":4.0,"classification":"Wachau DAC","grape":"Grüner Veltliner","grape_slug":"gruner-veltliner","hood":"Weissenkirchen"},{"slug":"denk-weissenkirchen","name":"Weingut Ferdinand Denk","topic":"vineyards","url":"/austria/wachau/vineyards/denk-weissenkirchen/","lat":48.40903,"lng":15.44321,"score":4.0,"classification":"Wachau DAC","grape":"Grüner Veltliner","grape_slug":"gruner-veltliner","hood":"Weissenkirchen"},{"slug":"pax-wosendorf","name":"Weingut PAX","topic":"vineyards","url":"/austria/wachau/vineyards/pax-wosendorf/","lat":48.38034,"lng":15.45496,"score":4.0,"classification":"Wachau DAC","grape":"Grüner Veltliner","grape_slug":"gruner-veltliner","hood":"Wösendorf"},{"slug":"mayr-joching","name":"Weingut Mayr Joching","topic":"vineyards","url":"/austria/wachau/vineyards/mayr-joching/","lat":48.39042,"lng":15.46372,"score":4.0,"classification":"Wachau DAC","grape":"Grüner Veltliner","grape_slug":"gruner-veltliner","hood":"Joching"},{"slug":"domaene-wachau-vinothek","name":"Domäne Wachau Vinothek","topic":"tasting-rooms","url":"/austria/wachau/tasting-rooms/domaene-wachau-vinothek/","lat":48.39227,"lng":15.52721,"score":4.7,"grape":"Grüner Veltliner","grape_slug":"gruner-veltliner","hood":"Dürnstein"},{"slug":"weingut-nikolaihof-salon-77","name":"Salon 77 - Nikolaihof Wachau","topic":"tasting-rooms","url":"/austria/wachau/tasting-rooms/weingut-nikolaihof-salon-77/","lat":48.39429,"lng":15.57764,"score":4.8,"grape":"Grüner Veltliner","grape_slug":"gruner-veltliner","hood":"Mautern"},{"slug":"weingut-emmerich-knoll-tasting","name":"Weingut Emmerich Knoll Tasting Room","topic":"tasting-rooms","url":"/austria/wachau/tasting-rooms/weingut-emmerich-knoll-tasting/","lat":48.38847,"lng":15.54197,"score":4.9,"grape":"Riesling","grape_slug":"riesling","hood":"Unterloiben"},{"slug":"weingut-fx-pichler-tasting","name":"Weingut F.X. Pichler Tasting Room","topic":"tasting-rooms","url":"/austria/wachau/tasting-rooms/weingut-fx-pichler-tasting/","lat":48.38778,"lng":15.53056,"score":4.9,"grape":"Grüner Veltliner","grape_slug":"gruner-veltliner","hood":"Oberloiben"},{"slug":"weingut-pichler-krutzler-tasting","name":"Weingut Pichler-Krutzler Tasting Room","topic":"tasting-rooms","url":"/austria/wachau/tasting-rooms/weingut-pichler-krutzler-tasting/","lat":48.39305,"lng":15.55619,"score":4.7,"grape":"Grüner Veltliner","grape_slug":"gruner-veltliner","hood":"Dürnstein"},{"slug":"winzer-krems-sandgrube13","name":"Winzer Krems Sandgrube 13","topic":"tasting-rooms","url":"/austria/wachau/tasting-rooms/winzer-krems-sandgrube13/","lat":48.42052,"lng":15.61843,"score":4.4,"grape":"Grüner Veltliner","grape_slug":"gruner-veltliner","hood":"Krems"},{"slug":"weingut-stadt-krems-taste-krems","name":"Taste Krems - Weingut Stadt Krems","topic":"tasting-rooms","url":"/austria/wachau/tasting-rooms/weingut-stadt-krems-taste-krems/","lat":48.41194,"lng":15.59617,"score":4.5,"grape":"Grüner Veltliner","grape_slug":"gruner-veltliner","hood":"Krems"},{"slug":"vinothek-thal-wachau","name":"Vinothek Thal Wachau","topic":"tasting-rooms","url":"/austria/wachau/tasting-rooms/vinothek-thal-wachau/","lat":48.3957,"lng":15.47213,"score":4.4,"grape":"Grüner Veltliner","grape_slug":"gruner-veltliner","hood":"Weißenkirchen"},{"slug":"weingut-stift-goettweig-tasting","name":"Weingut Stift Göttweig Tasting Room","topic":"tasting-rooms","url":"/austria/wachau/tasting-rooms/weingut-stift-goettweig-tasting/","lat":48.3665,"lng":15.61236,"score":4.6,"grape":"Grüner Veltliner","grape_slug":"gruner-veltliner","hood":"Göttweig"},{"slug":"weingut-tegernseerhof-tasting","name":"Weingut Tegernseerhof","topic":"tasting-rooms","url":"/austria/wachau/tasting-rooms/weingut-tegernseerhof-tasting/","lat":48.38763,"lng":15.54245,"score":4.7,"grape":"Grüner Veltliner","grape_slug":"gruner-veltliner","hood":"Unterloiben"},{"slug":"domane-wachau-kellerschloessl-heuriger","name":"Domäne Wachau Kellerschlössl Heuriger","topic":"tasting-rooms","url":"/austria/wachau/tasting-rooms/domane-wachau-kellerschloessl-heuriger/","lat":48.39227,"lng":15.52721,"score":4.6,"grape":"Grüner Veltliner","grape_slug":"gruner-veltliner","hood":"Dürnstein"},{"slug":"weinhimmel-vinothek-krems","name":"Weinhimmel Wein & Genuss","topic":"tasting-rooms","url":"/austria/wachau/tasting-rooms/weinhimmel-vinothek-krems/","lat":48.41172,"lng":15.60243,"score":4.4,"grape":"Grüner Veltliner","grape_slug":"gruner-veltliner","hood":"Krems"},{"slug":"steigenberger-smaragd-wine-bar","name":"Steigenberger Smaragd Wine Bar & Vinotheque","topic":"tasting-rooms","url":"/austria/wachau/tasting-rooms/steigenberger-smaragd-wine-bar/","lat":48.40885,"lng":15.58258,"score":4.3,"grape":"Grüner Veltliner","grape_slug":"gruner-veltliner","hood":"Krems"},{"slug":"vinothek-leopold-krems","name":"Leopold Weinbar & Vinothek","topic":"tasting-rooms","url":"/austria/wachau/tasting-rooms/vinothek-leopold-krems/","lat":48.40948,"lng":15.59685,"score":4.4,"grape":"Grüner Veltliner","grape_slug":"gruner-veltliner","hood":"Krems"},{"slug":"weinhimmel-wein-genuss","name":"Weinhimmel Wein & Genuss","topic":"wine-bars","url":"/austria/wachau/wine-bars/weinhimmel-wein-genuss/","lat":48.41172,"lng":15.60243,"score":4.4,"hood":"Krems"},{"slug":"leopold-weinbar-vinothek","name":"Leopold Weinbar & Vinothek","topic":"wine-bars","url":"/austria/wachau/wine-bars/leopold-weinbar-vinothek/","lat":48.40948,"lng":15.59685,"score":4.5,"hood":"Krems"},{"slug":"alter-klosterkeller-duernstein","name":"Alter Klosterkeller","topic":"wine-bars","url":"/austria/wachau/wine-bars/alter-klosterkeller-duernstein/","lat":48.39394,"lng":15.52082,"score":4.3,"hood":"Dürnstein"},{"slug":"heuriger-muellner-krems","name":"Heuriger Müllner","topic":"wine-bars","url":"/austria/wachau/wine-bars/heuriger-muellner-krems/","lat":48.41291,"lng":15.59809,"score":4.3,"hood":"Krems"},{"slug":"steigenberger-smaragd-bar-krems","name":"Steigenberger Smaragd Bar & Vinotheque","topic":"wine-bars","url":"/austria/wachau/wine-bars/steigenberger-smaragd-bar-krems/","lat":48.40885,"lng":15.58258,"score":4.3,"hood":"Krems"},{"slug":"wachauerstube-loiben","name":"Wachauerstube Loiben","topic":"wine-bars","url":"/austria/wachau/wine-bars/wachauerstube-loiben/","lat":48.38788,"lng":15.54336,"score":4.4,"hood":"Unterloiben"},{"slug":"heuriger-thal-denk-weissenkirchen","name":"Heuriger Denk / Thal-Wachau","topic":"wine-bars","url":"/austria/wachau/wine-bars/heuriger-thal-denk-weissenkirchen/","lat":48.39796,"lng":15.46895,"score":4.2,"hood":"Weißenkirchen"},{"slug":"weinstube-nikolaihof-mautern","name":"Weinstube Nikolaihof Wachau","topic":"wine-bars","url":"/austria/wachau/wine-bars/weinstube-nikolaihof-mautern/","lat":48.39429,"lng":15.57764,"score":4.8,"hood":"Mautern"},{"slug":"kellerschloessl-heuriger-abend","name":"Domäne Wachau Kellerschlössl Evening Heuriger","topic":"wine-bars","url":"/austria/wachau/wine-bars/kellerschloessl-heuriger-abend/","lat":48.39227,"lng":15.52721,"score":4.7,"hood":"Dürnstein"},{"slug":"bailoni-apricot-lounge-krems","name":"Bailoni Apricot Lounge - Steinertor","topic":"wine-bars","url":"/austria/wachau/wine-bars/bailoni-apricot-lounge-krems/","lat":48.40967,"lng":15.59671,"score":4.3,"hood":"Krems"},{"slug":"wein-und-wachau-melk","name":"Vinothek Wein und Wachau - Gottwald","topic":"wine-bars","url":"/austria/wachau/wine-bars/wein-und-wachau-melk/","lat":48.22703,"lng":15.33081,"score":4.2,"hood":"Melk"},{"slug":"heuriger-mang-weissenkirchen","name":"Heuriger Mang","topic":"wine-bars","url":"/austria/wachau/wine-bars/heuriger-mang-weissenkirchen/","lat":48.39565,"lng":15.46991,"score":4.1,"hood":"Weißenkirchen"},{"slug":"landhaus-bacher-mautern","name":"Landhaus Bacher","topic":"wine-restaurants","url":"/austria/wachau/wine-restaurants/landhaus-bacher-mautern/","lat":48.39323,"lng":15.57915,"score":4.9,"hood":"Mautern"},{"slug":"hofmeisterei-hirtzberger","name":"Hofmeisterei Hirtzberger","topic":"wine-restaurants","url":"/austria/wachau/wine-restaurants/hofmeisterei-hirtzberger/","lat":48.38063,"lng":15.45562,"score":4.8,"hood":"Wösendorf / Weißenkirchen"},{"slug":"loibnerhof-duernstein","name":"Loibnerhof","topic":"wine-restaurants","url":"/austria/wachau/wine-restaurants/loibnerhof-duernstein/","lat":48.38734,"lng":15.54207,"score":4.6,"hood":"Unterloiben"},{"slug":"weinstube-nikolaihof-restaurant","name":"Weinstube Nikolaihof Wachau","topic":"wine-restaurants","url":"/austria/wachau/wine-restaurants/weinstube-nikolaihof-restaurant/","lat":48.39429,"lng":15.57764,"score":4.7,"hood":"Mautern"},{"slug":"wachauerstube-loiben-restaurant","name":"Wachauerstube Loiben","topic":"wine-restaurants","url":"/austria/wachau/wine-restaurants/wachauerstube-loiben-restaurant/","lat":48.38788,"lng":15.54336,"score":4.4,"hood":"Unterloiben"},{"slug":"florianihof-mautern","name":"Florianihof","topic":"wine-restaurants","url":"/austria/wachau/wine-restaurants/florianihof-mautern/","lat":48.39429,"lng":15.57764,"score":4.2,"hood":"Mautern"},{"slug":"landgasthof-schickh-klein-wien","name":"Landgasthof Schickh","topic":"wine-restaurants","url":"/austria/wachau/wine-restaurants/landgasthof-schickh-klein-wien/","lat":48.39429,"lng":15.57764,"score":4.3,"hood":"Klein-Wien / Mautern"},{"slug":"vinothek-thal-wachau-shop","name":"Vinothek Thal Wachau","topic":"wine-retailers","url":"/austria/wachau/wine-retailers/vinothek-thal-wachau-shop/","lat":48.3957,"lng":15.47213,"score":4.4,"hood":"Weißenkirchen"},{"slug":"weinhimmel-wein-genuss-shop","name":"Weinhimmel Wein & Genuss","topic":"wine-retailers","url":"/austria/wachau/wine-retailers/weinhimmel-wein-genuss-shop/","lat":48.41172,"lng":15.60243,"score":4.4,"hood":"Krems"},{"slug":"vinothek-wein-und-wachau-melk","name":"Vinothek Wein und Wachau","topic":"wine-retailers","url":"/austria/wachau/wine-retailers/vinothek-wein-und-wachau-melk/","lat":48.22703,"lng":15.33081,"score":4.2,"hood":"Melk"},{"slug":"winzer-krems-shop-sandgrube","name":"Winzer Krems Sandgrube 13 Shop","topic":"wine-retailers","url":"/austria/wachau/wine-retailers/winzer-krems-shop-sandgrube/","lat":48.42052,"lng":15.61843,"score":4.3,"hood":"Krems"},{"slug":"weingut-stadt-krems-farm-shop","name":"Weingut Stadt Krems Farm Shop","topic":"wine-retailers","url":"/austria/wachau/wine-retailers/weingut-stadt-krems-farm-shop/","lat":48.41194,"lng":15.59617,"score":4.4,"hood":"Krems"},{"slug":"domaene-wachau-vinothek-shop","name":"Domäne Wachau Vinothek Shop","topic":"wine-retailers","url":"/austria/wachau/wine-retailers/domaene-wachau-vinothek-shop/","lat":48.39227,"lng":15.52721,"score":4.6,"hood":"Dürnstein"},{"slug":"bailoni-steinertor-shop","name":"Bailoni Steinertor Shop","topic":"wine-retailers","url":"/austria/wachau/wine-retailers/bailoni-steinertor-shop/","lat":48.40967,"lng":15.59671,"score":4.3,"hood":"Krems"},{"slug":"wieser-wachau-hauptstrasse","name":"Wieser Wachau Farm Shop - Wösendorf","topic":"wine-retailers","url":"/austria/wachau/wine-retailers/wieser-wachau-hauptstrasse/","lat":48.38076,"lng":15.45448,"score":4.3,"hood":"Wösendorf"},{"slug":"weingut-stift-goettweig-farm-gate","name":"Weingut Stift Göttweig Farm-Gate Shop","topic":"wine-retailers","url":"/austria/wachau/wine-retailers/weingut-stift-goettweig-farm-gate/","lat":48.3665,"lng":15.61236,"score":4.5,"hood":"Göttweig"},{"slug":"taste-krems-masterclass","name":"Taste Krems Wine Masterclass","topic":"wine-schools","url":"/austria/wachau/wine-schools/taste-krems-masterclass/","lat":48.41194,"lng":15.59617,"score":4.5,"hood":"Krems"},{"slug":"winzer-krems-weinsinn-cellar-experience","name":"Winzer Krems Sandgrube 13 Wein.Sinn Experience","topic":"wine-schools","url":"/austria/wachau/wine-schools/winzer-krems-weinsinn-cellar-experience/","lat":48.42052,"lng":15.61843,"score":4.3,"hood":"Krems"},{"slug":"domaene-wachau-guided-cellar-tour","name":"Domäne Wachau Guided Cellar Tour & Tasting","topic":"wine-schools","url":"/austria/wachau/wine-schools/domaene-wachau-guided-cellar-tour/","lat":48.39227,"lng":15.52721,"score":4.6,"hood":"Dürnstein"},{"slug":"nikolaihof-biodynamic-cellar-tour","name":"Nikolaihof Biodynamic Cellar Tour","topic":"wine-schools","url":"/austria/wachau/wine-schools/nikolaihof-biodynamic-cellar-tour/","lat":48.39429,"lng":15.57764,"score":4.8,"hood":"Mautern"},{"slug":"weingut-stift-goettweig-cellar-tour","name":"Weingut Stift Göttweig Experience Cellar Tour","topic":"wine-schools","url":"/austria/wachau/wine-schools/weingut-stift-goettweig-cellar-tour/","lat":48.41194,"lng":15.59617,"score":4.5,"hood":"Krems"},{"slug":"domaene-wachau-vineyard-hike-tour","name":"Domäne Wachau Wine.Vineyard.Hike","topic":"wine-tours","url":"/austria/wachau/wine-tours/domaene-wachau-vineyard-hike-tour/","lat":48.39227,"lng":15.52721,"score":4.8,"hood":"Dürnstein"},{"slug":"domaene-wachau-vineyard-ship","name":"Domäne Wachau Wine.Vineyard.Ship","topic":"wine-tours","url":"/austria/wachau/wine-tours/domaene-wachau-vineyard-ship/","lat":48.39227,"lng":15.52721,"score":4.7,"hood":"Dürnstein"},{"slug":"domaene-wachau-helicopter-flight","name":"Domäne Wachau Wine.Vineyard.Flight - Helicopter Tour","topic":"wine-tours","url":"/austria/wachau/wine-tours/domaene-wachau-helicopter-flight/","lat":48.39227,"lng":15.52721,"score":4.9,"hood":"Dürnstein"},{"slug":"ddsg-blue-danube-wachau-cruise","name":"DDSG Blue Danube Wachau Sightseeing Cruise","topic":"wine-tours","url":"/austria/wachau/wine-tours/ddsg-blue-danube-wachau-cruise/","lat":48.40298,"lng":15.58865,"score":4.5,"hood":"Krems-Stein"},{"slug":"vienna-explorer-wachau-bike-tour","name":"Vienna Explorer Wachau Winery Bike Tour","topic":"wine-tours","url":"/austria/wachau/wine-tours/vienna-explorer-wachau-bike-tour/","lat":48.21497,"lng":16.3726,"score":4.5,"hood":"Vienna (departure point)"},{"slug":"domaene-wachau-segway-vineyard","name":"Domäne Wachau Wine.Vineyard.Segway","topic":"wine-tours","url":"/austria/wachau/wine-tours/domaene-wachau-segway-vineyard/","lat":48.39227,"lng":15.52721,"score":4.6,"hood":"Dürnstein"},{"slug":"bailoni-wachauer-marillen-destillerie","name":"Bailoni - Erste Wachauer Marillen-Destillerie","topic":"distilleries","url":"/austria/wachau/distilleries/bailoni-wachauer-marillen-destillerie/","lat":48.40098,"lng":15.5779,"score":4.7,"hood":"Krems-Stein"},{"slug":"destillerie-markus-wieser","name":"Destillerie Markus Wieser - Wieser Wachau","topic":"distilleries","url":"/austria/wachau/distilleries/destillerie-markus-wieser/","lat":48.38076,"lng":15.45448,"score":4.4,"hood":"Wösendorf"},{"slug":"domaene-wachau-marillenbrand","name":"Domäne Wachau - Wachauer Marillenbrand","topic":"distilleries","url":"/austria/wachau/distilleries/domaene-wachau-marillenbrand/","lat":48.39227,"lng":15.52721,"score":4.5,"hood":"Dürnstein"},{"slug":"rochelt-tyrolean-distillery","name":"Rochelt Tyrolean Distillery","topic":"distilleries","url":"/austria/wachau/distilleries/rochelt-tyrolean-distillery/","lat":47.30206,"lng":11.59711,"score":4.6,"hood":"Fritzens (Tyrol, 3 hrs from Wachau)"},{"slug":"wachauer-marille-cooperative-distillers","name":"Wachauer Marille - Collective Farm Distillers","topic":"distilleries","url":"/austria/wachau/distilleries/wachauer-marille-cooperative-distillers/","lat":48.36503,"lng":15.41746,"score":4.3,"hood":"Spitz"},{"slug":"bailoni-shop-duernstein","name":"Bailoni Shop Dürnstein","topic":"distilleries","url":"/austria/wachau/distilleries/bailoni-shop-duernstein/","lat":48.39227,"lng":15.52721,"score":4.2,"hood":"Dürnstein"},{"slug":"museumkrems-weinstadtmuseum","name":"museumkrems - Weinstadtmuseum","topic":"wine-museums","url":"/austria/wachau/wine-museums/museumkrems-weinstadtmuseum/","lat":48.41117,"lng":15.59729,"score":4.3,"hood":"Krems"},{"slug":"wachaumuseum-weissenkirchen","name":"Wachaumuseum Weißenkirchen","topic":"wine-museums","url":"/austria/wachau/wine-museums/wachaumuseum-weissenkirchen/","lat":48.3957,"lng":15.47213,"score":4.1,"hood":"Weißenkirchen"},{"slug":"weingut-stift-goettweig-cellar-heritage","name":"Weingut Stift Göttweig - Historic Cellar Heritage","topic":"wine-museums","url":"/austria/wachau/wine-museums/weingut-stift-goettweig-cellar-heritage/","lat":48.3665,"lng":15.61236,"score":4.6,"hood":"Göttweig"},{"slug":"nikolaihof-roman-cellar-heritage","name":"Nikolaihof Roman Cellar Heritage","topic":"wine-museums","url":"/austria/wachau/wine-museums/nikolaihof-roman-cellar-heritage/","lat":48.39429,"lng":15.57764,"score":4.8,"hood":"Mautern"},{"slug":"steigenberger-hotel-spa-krems","name":"Steigenberger Hotel & Spa Krems","topic":"wine-hotels","url":"/austria/wachau/wine-hotels/steigenberger-hotel-spa-krems/","lat":48.40885,"lng":15.58258,"score":4.5,"hood":"Krems"},{"slug":"loibnerhof-heuriger-unterloiben","name":"Loibnerhof","topic":"wine-hotels","url":"/austria/wachau/wine-hotels/loibnerhof-heuriger-unterloiben/","lat":48.38734,"lng":15.54207,"score":4.7,"hood":"Unterloiben"},{"slug":"wein-lese-hotel-loiben","name":"Wein.Lese.Hotel Loiben","topic":"wine-hotels","url":"/austria/wachau/wine-hotels/wein-lese-hotel-loiben/","lat":48.38706,"lng":15.5413,"score":4.5,"hood":"Unterloiben"},{"slug":"nikolaihof-estate-accommodation","name":"Nikolaihof Wachau - Estate Accommodation","topic":"wine-hotels","url":"/austria/wachau/wine-hotels/nikolaihof-estate-accommodation/","lat":48.39429,"lng":15.57764,"score":4.8,"hood":"Mautern"},{"slug":"weingut-knoll-accommodation","name":"Weingut Emmerich Knoll - Estate Rooms","topic":"wine-hotels","url":"/austria/wachau/wine-hotels/weingut-knoll-accommodation/","lat":48.38847,"lng":15.54197,"score":4.9,"hood":"Unterloiben"},{"slug":"domaene-wachau-helicopter-wine-flight","name":"Domäne Wachau Wine.Vineyard.Flight - Helicopter over UNESCO Vines","topic":"wine-experiences","url":"/austria/wachau/wine-experiences/domaene-wachau-helicopter-wine-flight/","lat":48.39227,"lng":15.52721,"score":4.9,"hood":"Dürnstein"},{"slug":"domaene-wachau-private-yacht","name":"Domäne Wachau Wine.Vineyard.Yacht - Private Danube Tasting","topic":"wine-experiences","url":"/austria/wachau/wine-experiences/domaene-wachau-private-yacht/","lat":48.39227,"lng":15.52721,"score":4.8,"hood":"Dürnstein"},{"slug":"domaene-wachau-vineyard-picnic","name":"Domäne Wachau Wine.Vineyard.Picnic","topic":"wine-experiences","url":"/austria/wachau/wine-experiences/domaene-wachau-vineyard-picnic/","lat":48.39227,"lng":15.52721,"score":4.7,"hood":"Dürnstein"},{"slug":"nikolaihof-biodynamic-harvest-experience","name":"Nikolaihof Biodynamic Harvest & Cellar Experience","topic":"wine-experiences","url":"/austria/wachau/wine-experiences/nikolaihof-biodynamic-harvest-experience/","lat":48.39429,"lng":15.57764,"score":4.9,"hood":"Mautern"},{"slug":"wachau-wine-spring-steinfeder-night","name":"Steinfeder Night at Schloss Spitz - Wachauer Weinfrühling","topic":"wine-experiences","url":"/austria/wachau/wine-experiences/wachau-wine-spring-steinfeder-night/","lat":48.3598,"lng":15.40124,"score":4.8,"hood":"Spitz"},{"slug":"steigenberger-torch-vineyard-hike","name":"Steigenberger Torch-Lit Vineyard Hike","topic":"wine-experiences","url":"/austria/wachau/wine-experiences/steigenberger-torch-vineyard-hike/","lat":48.40885,"lng":15.58258,"score":4.5,"hood":"Krems"},{"slug":"domaene-wachau-jeep-safari","name":"Domäne Wachau Wine.Vineyard.Safari - Jeep Vineyard Exploration","topic":"wine-experiences","url":"/austria/wachau/wine-experiences/domaene-wachau-jeep-safari/","lat":48.39227,"lng":15.52721,"score":4.7,"hood":"Dürnstein"},{"slug":"domaene-wachau-sup-danube","name":"Domäne Wachau Wine.Vineyard.SUP - Stand-Up Paddleboard","topic":"wine-experiences","url":"/austria/wachau/wine-experiences/domaene-wachau-sup-danube/","lat":48.39227,"lng":15.52721,"score":4.6,"hood":"Dürnstein"},{"slug":"weingut-lagler","name":"Weingut Lagler","topic":"hidden-gems","url":"/austria/wachau/hidden-gems/weingut-lagler/","lat":48.38571,"lng":15.45934,"score":4.4,"classification":"Wachau DAC","grape":"Gruner Veltliner","grape_slug":"gruner-veltliner","hood":"Joching"},{"slug":"weingut-veyder-malberg","name":"Weingut Veyder-Malberg","topic":"hidden-gems","url":"/austria/wachau/hidden-gems/weingut-veyder-malberg/","lat":48.36745,"lng":15.4266,"score":4.6,"classification":"Wachau DAC","grape":"Gruner Veltliner","grape_slug":"gruner-veltliner","hood":"Spitz"},{"slug":"weingut-frischengruber","name":"Weingut Frischengruber","topic":"hidden-gems","url":"/austria/wachau/hidden-gems/weingut-frischengruber/","lat":48.38386,"lng":15.45676,"score":4.3,"classification":"Wachau DAC","grape":"Gruner Veltliner","grape_slug":"gruner-veltliner","hood":"Weissenkirchen"},{"slug":"weingut-schmelz","name":"Weingut Schmelz","topic":"hidden-gems","url":"/austria/wachau/hidden-gems/weingut-schmelz/","lat":48.38571,"lng":15.45934,"score":4.1,"classification":"Wachau DAC","grape":"Gruner Veltliner","grape_slug":"gruner-veltliner","hood":"Joching"},{"slug":"stift-melk-weingut","name":"Stift Melk Weingut (Monastery Vineyard)","topic":"hidden-gems","url":"/austria/wachau/hidden-gems/stift-melk-weingut/","lat":48.22738,"lng":15.32862,"score":4.2,"classification":"Wachau DAC","grape":"Gruner Veltliner","grape_slug":"gruner-veltliner","hood":"Melk"},{"slug":"weingut-chorherren-klosterneuburg-wachau","name":"Weingut der Augustiner Chorherren Klosterneuburg (Wachau holdings)","topic":"hidden-gems","url":"/austria/wachau/hidden-gems/weingut-chorherren-klosterneuburg-wachau/","lat":48.3072,"lng":16.32616,"score":4.2,"classification":"Wachau DAC","grape":"Gruner Veltliner","grape_slug":"gruner-veltliner","hood":"Klosterneuburg (with Wachau vineyard holdings)"},{"slug":"nikolaihof-biodynamic","name":"Nikolaihof","topic":"dietary","diet":"biodynamic","url":"/austria/wachau/dietary/nikolaihof-biodynamic/","lat":48.39429,"lng":15.57764,"score":4.8},{"slug":"veyder-malberg-biodynamic","name":"Weingut Veyder-Malberg","topic":"dietary","diet":"biodynamic","url":"/austria/wachau/dietary/veyder-malberg-biodynamic/","lat":48.36745,"lng":15.4266,"score":4.6},{"slug":"domane-wachau-organic-range","name":"Domane Wachau (organic vineyard programme)","topic":"dietary","diet":"organic","url":"/austria/wachau/dietary/domane-wachau-organic-range/","lat":48.39227,"lng":15.52721,"score":4.2},{"slug":"weingut-lagler-organic","name":"Weingut Lagler (organic)","topic":"dietary","diet":"organic","url":"/austria/wachau/dietary/weingut-lagler-organic/","lat":48.38571,"lng":15.45934,"score":4.4},{"slug":"weingut-nikolaihof-organic","name":"Nikolaihof (Demeter and organic)","topic":"dietary","diet":"organic","url":"/austria/wachau/dietary/weingut-nikolaihof-organic/","lat":48.39429,"lng":15.57764,"score":4.8},{"slug":"veyder-malberg-natural","name":"Weingut Veyder-Malberg (natural wine)","topic":"dietary","diet":"natural","url":"/austria/wachau/dietary/veyder-malberg-natural/","lat":48.36745,"lng":15.4266,"score":4.6},{"slug":"weingut-lagler-natural","name":"Weingut Lagler (natural wine)","topic":"dietary","diet":"natural","url":"/austria/wachau/dietary/weingut-lagler-natural/","lat":48.38571,"lng":15.45934,"score":4.4},{"slug":"nikolaihof-vinothek-natural","name":"Nikolaihof Vinothek (aged natural wine library)","topic":"dietary","diet":"natural","url":"/austria/wachau/dietary/nikolaihof-vinothek-natural/","lat":48.39429,"lng":15.57764,"score":4.8},{"slug":"domane-wachau-vegan","name":"Domane Wachau (vegan winemaking on selected cuvees)","topic":"dietary","diet":"vegan_winemaking","url":"/austria/wachau/dietary/domane-wachau-vegan/","lat":48.39227,"lng":15.52721,"score":4.1},{"slug":"veyder-malberg-vegan","name":"Weingut Veyder-Malberg (vegan winemaking)","topic":"dietary","diet":"vegan_winemaking","url":"/austria/wachau/dietary/veyder-malberg-vegan/","lat":48.36745,"lng":15.4266,"score":4.6},{"slug":"nikolaihof-low-sulfite","name":"Nikolaihof (low sulfite, biodynamic)","topic":"dietary","diet":"lowsulfite","url":"/austria/wachau/dietary/nikolaihof-low-sulfite/","lat":48.39429,"lng":15.57764,"score":4.7},{"slug":"veyder-malberg-low-sulfite","name":"Weingut Veyder-Malberg (minimal sulfur addition)","topic":"dietary","diet":"lowsulfite","url":"/austria/wachau/dietary/veyder-malberg-low-sulfite/","lat":48.36745,"lng":15.4266,"score":4.5},{"slug":"weingut-lagler-low-sulfite","name":"Weingut Lagler (low intervention, organic)","topic":"dietary","diet":"lowsulfite","url":"/austria/wachau/dietary/weingut-lagler-low-sulfite/","lat":48.38571,"lng":15.45934,"score":4.3}]}