{"city":{"slug":"priorat","name":"Priorat","country":"Spain","center":[41.18991,0.81137],"n":175},"pins":[{"slug":"clos-mogador","name":"Clos Mogador","topic":"vineyards","url":"/spain/priorat/vineyards/clos-mogador/","lat":41.20686,"lng":0.79758,"score":4.9,"classification":"DOQ Priorat","grape":"Garnacha","grape_slug":"garnacha","hood":"Gratallops"},{"slug":"alvaro-palacios","name":"Alvaro Palacios","topic":"vineyards","url":"/spain/priorat/vineyards/alvaro-palacios/","lat":41.19341,"lng":0.77687,"score":5.0,"classification":"DOQ Priorat","grape":"Garnacha","grape_slug":"garnacha","hood":"Gratallops"},{"slug":"clos-de-lobac","name":"Clos de l'Obac / Costers del Siurana","topic":"vineyards","url":"/spain/priorat/vineyards/clos-de-lobac/","lat":41.18684,"lng":0.76958,"score":4.8,"classification":"DOQ Priorat","grape":"Garnacha","grape_slug":"garnacha","hood":"Gratallops"},{"slug":"mas-martinet","name":"Mas Martinet Viticultors","topic":"vineyards","url":"/spain/priorat/vineyards/mas-martinet/","lat":41.14399,"lng":0.81885,"score":4.8,"classification":"DOQ Priorat","grape":"Garnacha","grape_slug":"garnacha","hood":"Gratallops"},{"slug":"cellers-scala-dei","name":"Cellers de Scala Dei","topic":"vineyards","url":"/spain/priorat/vineyards/cellers-scala-dei/","lat":41.2138,"lng":0.81162,"score":4.7,"classification":"DOQ Priorat","grape":"Garnacha","grape_slug":"garnacha","hood":"Escaladei"},{"slug":"terroir-al-limit","name":"Terroir al Limit","topic":"vineyards","url":"/spain/priorat/vineyards/terroir-al-limit/","lat":41.21381,"lng":0.81028,"score":4.9,"classification":"DOQ Priorat","grape":"Garnacha","grape_slug":"garnacha","hood":"Torroja del Priorat"},{"slug":"ferrer-bobet","name":"Ferrer Bobet","topic":"vineyards","url":"/spain/priorat/vineyards/ferrer-bobet/","lat":41.14399,"lng":0.81885,"score":4.7,"classification":"DOQ Priorat","grape":"Garnacha","grape_slug":"garnacha","hood":"Porrera"},{"slug":"vall-llach","name":"Celler Vall Llach","topic":"vineyards","url":"/spain/priorat/vineyards/vall-llach/","lat":41.18827,"lng":0.85473,"score":4.8,"classification":"DOQ Priorat","grape":"Cariñena","grape_slug":"carinena","hood":"Porrera"},{"slug":"mas-doix","name":"Celler Mas Doix","topic":"vineyards","url":"/spain/priorat/vineyards/mas-doix/","lat":41.23352,"lng":0.84515,"score":4.8,"classification":"DOQ Priorat","grape":"Garnacha","grape_slug":"garnacha","hood":"Poboleda"},{"slug":"mas-den-gil","name":"Finca Mas d'en Gil","topic":"vineyards","url":"/spain/priorat/vineyards/mas-den-gil/","lat":41.16324,"lng":0.76615,"score":4.7,"classification":"DOQ Priorat","grape":"Garnacha","grape_slug":"garnacha","hood":"Bellmunt del Priorat"},{"slug":"vinicola-del-priorat","name":"Vinicola del Priorat","topic":"vineyards","url":"/spain/priorat/vineyards/vinicola-del-priorat/","lat":41.19261,"lng":0.77604,"score":4.3,"classification":"DOQ Priorat","grape":"Garnacha","grape_slug":"garnacha","hood":"Gratallops"},{"slug":"celler-pasanau","name":"Celler Pasanau","topic":"vineyards","url":"/spain/priorat/vineyards/celler-pasanau/","lat":41.26532,"lng":0.84144,"score":4.4,"classification":"DOQ Priorat","grape":"Garnacha","grape_slug":"garnacha","hood":"La Morera de Montsant"},{"slug":"marco-abella","name":"Marco Abella","topic":"vineyards","url":"/spain/priorat/vineyards/marco-abella/","lat":41.18882,"lng":0.85604,"score":4.5,"classification":"DOQ Priorat","grape":"Garnacha","grape_slug":"garnacha","hood":"Porrera"},{"slug":"buil-gine","name":"Buil and Gine","topic":"vineyards","url":"/spain/priorat/vineyards/buil-gine/","lat":41.19341,"lng":0.77687,"score":4.4,"classification":"DOQ Priorat","grape":"Garnacha","grape_slug":"garnacha","hood":"Gratallops"},{"slug":"sangenis-i-vaque","name":"Sangenis i Vaque","topic":"vineyards","url":"/spain/priorat/vineyards/sangenis-i-vaque/","lat":41.18785,"lng":0.85647,"score":4.4,"classification":"DOQ Priorat","grape":"Garnacha","grape_slug":"garnacha","hood":"Porrera"},{"slug":"cims-de-porrera","name":"Cims de Porrera","topic":"vineyards","url":"/spain/priorat/vineyards/cims-de-porrera/","lat":41.18882,"lng":0.85604,"score":4.5,"classification":"DOQ Priorat","grape":"Cariñena","grape_slug":"carinena","hood":"Porrera"},{"slug":"rotllan-torra","name":"Celler Rotllan Torra","topic":"vineyards","url":"/spain/priorat/vineyards/rotllan-torra/","lat":41.20686,"lng":0.79758,"score":4.3,"classification":"DOQ Priorat","grape":"Garnacha","grape_slug":"garnacha","hood":"Torroja del Priorat"},{"slug":"clos-berenguer","name":"Clos Berenguer","topic":"vineyards","url":"/spain/priorat/vineyards/clos-berenguer/","lat":41.26422,"lng":0.90508,"score":4.2,"classification":"DOQ Priorat","grape":"Garnacha","grape_slug":"garnacha","hood":"El Molar"},{"slug":"celler-cal-pla","name":"Celler Cal Pla","topic":"vineyards","url":"/spain/priorat/vineyards/celler-cal-pla/","lat":41.18768,"lng":0.85371,"score":4.5,"classification":"DOQ Priorat","grape":"Garnacha","grape_slug":"garnacha","hood":"Porrera"},{"slug":"mas-igneus","name":"Mas Igneus","topic":"vineyards","url":"/spain/priorat/vineyards/mas-igneus/","lat":41.19341,"lng":0.77687,"score":4.4,"classification":"DOQ Priorat","grape":"Garnacha","grape_slug":"garnacha","hood":"Gratallops"},{"slug":"sao-del-coster","name":"Sao del Coster","topic":"vineyards","url":"/spain/priorat/vineyards/sao-del-coster/","lat":41.20686,"lng":0.79758,"score":4.6,"classification":"DOQ Priorat","grape":"Garnacha","grape_slug":"garnacha","hood":"Gratallops"},{"slug":"bodegas-mas-alta","name":"Bodegas Mas Alta","topic":"vineyards","url":"/spain/priorat/vineyards/bodegas-mas-alta/","lat":41.22503,"lng":0.78036,"score":4.5,"classification":"DOQ Priorat","grape":"Garnacha","grape_slug":"garnacha","hood":"La Vilella Alta"},{"slug":"costers-del-priorat","name":"Costers del Priorat","topic":"vineyards","url":"/spain/priorat/vineyards/costers-del-priorat/","lat":41.16324,"lng":0.76615,"score":4.4,"classification":"DOQ Priorat","grape":"Garnacha","grape_slug":"garnacha","hood":"Bellmunt del Priorat"},{"slug":"clos-erasmus","name":"Clos i Terrasses (Clos Erasmus)","topic":"vineyards","url":"/spain/priorat/vineyards/clos-erasmus/","lat":41.20686,"lng":0.79758,"score":4.9,"classification":"DOQ Priorat","grape":"Garnacha","grape_slug":"garnacha","hood":"Gratallops"},{"slug":"linfernal","name":"Domaine l'Infernal","topic":"vineyards","url":"/spain/priorat/vineyards/linfernal/","lat":41.20686,"lng":0.79758,"score":4.3,"classification":"DOQ Priorat","grape":"Garnacha","grape_slug":"garnacha","hood":"Torroja del Priorat"},{"slug":"celler-la-vinyes-lermita","name":"L'Ermita (Alvaro Palacios Gran Vinya Classificada)","topic":"vineyards","url":"/spain/priorat/vineyards/celler-la-vinyes-lermita/","lat":41.16324,"lng":0.76615,"score":5.0,"classification":"DOQ Priorat Gran Vinya Classificada","grape":"Garnacha","grape_slug":"garnacha","hood":"Bellmunt del Priorat"},{"slug":"celler-priorat-natur","name":"Celler Priorat Natur","topic":"vineyards","url":"/spain/priorat/vineyards/celler-priorat-natur/","lat":41.18882,"lng":0.85604,"score":4.2,"classification":"DOQ Priorat","grape":"Garnacha","grape_slug":"garnacha","hood":"Porrera"},{"slug":"celler-els-guiamets","name":"Celler els Guiamets","topic":"vineyards","url":"/spain/priorat/vineyards/celler-els-guiamets/","lat":41.10226,"lng":0.75254,"score":4.0,"classification":"DOQ Priorat","grape":"Garnacha","grape_slug":"garnacha","hood":"Els Guiamets"},{"slug":"celler-eudald-massana-noya","name":"Celler Eudald Massana Noya","topic":"vineyards","url":"/spain/priorat/vineyards/celler-eudald-massana-noya/","lat":41.20686,"lng":0.79758,"score":4.1,"classification":"DOQ Priorat","grape":"Garnacha","grape_slug":"garnacha","hood":"Torroja del Priorat"},{"slug":"celler-castellet","name":"Celler Castellet","topic":"vineyards","url":"/spain/priorat/vineyards/celler-castellet/","lat":41.16324,"lng":0.76615,"score":4.0,"classification":"DOQ Priorat","grape":"Garnacha","grape_slug":"garnacha","hood":"Bellmunt del Priorat"},{"slug":"celler-mas-de-la-rosa-vl","name":"Mas de la Rosa (Vall Llach Gran Vinya Classificada)","topic":"vineyards","url":"/spain/priorat/vineyards/celler-mas-de-la-rosa-vl/","lat":41.18827,"lng":0.85473,"score":4.9,"classification":"DOQ Priorat Gran Vinya Classificada","grape":"Cariñena","grape_slug":"carinena","hood":"Porrera"},{"slug":"celler-1902-mas-doix","name":"1902 Tossal d'en Bou (Mas Doix Gran Vinya Classificada)","topic":"vineyards","url":"/spain/priorat/vineyards/celler-1902-mas-doix/","lat":41.23352,"lng":0.84515,"score":4.9,"classification":"DOQ Priorat Gran Vinya Classificada","grape":"Garnacha","grape_slug":"garnacha","hood":"Poboleda"},{"slug":"celler-vinyes-dels-aspres","name":"Vinyes dels Aspres","topic":"vineyards","url":"/spain/priorat/vineyards/celler-vinyes-dels-aspres/","lat":41.10074,"lng":0.78272,"score":4.0,"classification":"DOQ Priorat","grape":"Garnacha","grape_slug":"garnacha","hood":"Corça"},{"slug":"celler-mas-de-codols","name":"Mas de Codols","topic":"vineyards","url":"/spain/priorat/vineyards/celler-mas-de-codols/","lat":41.20686,"lng":0.79758,"score":4.1,"classification":"DOQ Priorat","grape":"Garnacha","grape_slug":"garnacha","hood":"Torroja del Priorat"},{"slug":"celler-clos-figueras","name":"Clos Figueras","topic":"vineyards","url":"/spain/priorat/vineyards/celler-clos-figueras/","lat":41.281,"lng":0.7219,"score":4.3,"classification":"DOQ Priorat","grape":"Garnacha","grape_slug":"garnacha","hood":"Falset"},{"slug":"celler-del-pont","name":"Celler del Pont","topic":"vineyards","url":"/spain/priorat/vineyards/celler-del-pont/","lat":41.18822,"lng":0.85671,"score":4.0,"classification":"DOQ Priorat","grape":"Garnacha","grape_slug":"garnacha","hood":"Porrera"},{"slug":"celler-orto-vins","name":"Orto Vins","topic":"vineyards","url":"/spain/priorat/vineyards/celler-orto-vins/","lat":41.16941,"lng":0.72663,"score":4.0,"classification":"DOQ Priorat","grape":"Garnacha","grape_slug":"garnacha","hood":"El Lloar"},{"slug":"celler-mas-moreno","name":"Mas Moreno","topic":"vineyards","url":"/spain/priorat/vineyards/celler-mas-moreno/","lat":41.18991,"lng":0.78407,"score":4.0,"classification":"DOQ Priorat","grape":"Garnacha","grape_slug":"garnacha","hood":"Gratallops"},{"slug":"cellers-cecilio","name":"Cellers Cecilio","topic":"vineyards","url":"/spain/priorat/vineyards/cellers-cecilio/","lat":41.1936,"lng":0.7775,"score":4.1,"classification":"DOQ Priorat","grape":"Garnacha","grape_slug":"garnacha","hood":"Gratallops"},{"slug":"nin-ortiz","name":"Nin-Ortiz","topic":"vineyards","url":"/spain/priorat/vineyards/nin-ortiz/","lat":41.18935,"lng":0.85642,"score":4.6,"classification":"DOQ Priorat","grape":"Cariñena","grape_slug":"carinena","hood":"Porrera"},{"slug":"cooperativa-falset-marca","name":"Cooperativa Falset Marca (Etim)","topic":"vineyards","url":"/spain/priorat/vineyards/cooperativa-falset-marca/","lat":41.14356,"lng":0.81706,"score":4.2,"classification":"DO Montsant / DOQ Priorat","grape":"Garnacha","grape_slug":"garnacha","hood":"Falset"},{"slug":"torres-salmos","name":"Torres Salmos","topic":"vineyards","url":"/spain/priorat/vineyards/torres-salmos/","lat":41.19341,"lng":0.77687,"score":4.3,"classification":"DOQ Priorat","grape":"Garnacha","grape_slug":"garnacha","hood":"Gratallops"},{"slug":"venus-la-universal","name":"Venus la Universal","topic":"vineyards","url":"/spain/priorat/vineyards/venus-la-universal/","lat":41.13895,"lng":0.82305,"score":4.5,"classification":"DO Montsant / DOQ Priorat","grape":"Garnacha","grape_slug":"garnacha","hood":"Falset"},{"slug":"clos-galena","name":"Clos Galena","topic":"vineyards","url":"/spain/priorat/vineyards/clos-galena/","lat":41.23352,"lng":0.84515,"score":4.2,"classification":"DOQ Priorat","grape":"Garnacha","grape_slug":"garnacha","hood":"Poboleda"},{"slug":"celler-el-masroig","name":"Celler el Masroig","topic":"vineyards","url":"/spain/priorat/vineyards/celler-el-masroig/","lat":41.16941,"lng":0.72663,"score":4.1,"classification":"DO Montsant","grape":"Garnacha","grape_slug":"garnacha","hood":"El Masroig"},{"slug":"mas-den-brunell","name":"Mas d'en Brunell","topic":"vineyards","url":"/spain/priorat/vineyards/mas-den-brunell/","lat":41.23352,"lng":0.84515,"score":4.0,"classification":"DOQ Priorat","grape":"Garnacha","grape_slug":"garnacha","hood":"El Lloar"},{"slug":"celler-joan-simo","name":"Celler Joan Simo","topic":"vineyards","url":"/spain/priorat/vineyards/celler-joan-simo/","lat":41.18882,"lng":0.85604,"score":4.3,"classification":"DOQ Priorat","grape":"Cariñena","grape_slug":"carinena","hood":"Porrera"},{"slug":"mas-den-compte","name":"Mas d'en Compte","topic":"vineyards","url":"/spain/priorat/vineyards/mas-den-compte/","lat":41.18882,"lng":0.85604,"score":4.1,"classification":"DOQ Priorat","grape":"Cariñena","grape_slug":"carinena","hood":"Porrera"},{"slug":"arrels-del-priorat","name":"Celler Arrels del Priorat","topic":"vineyards","url":"/spain/priorat/vineyards/arrels-del-priorat/","lat":41.20686,"lng":0.79758,"score":4.1,"classification":"DOQ Priorat","grape":"Garnacha","grape_slug":"garnacha","hood":"Gratallops"},{"slug":"celler-joan-ametller","name":"Celler Joan Ametller","topic":"vineyards","url":"/spain/priorat/vineyards/celler-joan-ametller/","lat":41.23352,"lng":0.84515,"score":4.0,"classification":"DOQ Priorat","grape":"Garnacha","grape_slug":"garnacha","hood":"Poboleda"},{"slug":"clos-mogador-tasting-gratallops","name":"Clos Mogador","topic":"tasting-rooms","url":"/spain/priorat/tasting-rooms/clos-mogador-tasting-gratallops/","lat":41.19341,"lng":0.77687,"score":4.8,"grape":"Garnacha","grape_slug":"garnacha","hood":"Gratallops, DOQ Priorat"},{"slug":"alvaro-palacios-tasting-gratallops","name":"Alvaro Palacios Winery","topic":"tasting-rooms","url":"/spain/priorat/tasting-rooms/alvaro-palacios-tasting-gratallops/","lat":41.19355,"lng":0.77515,"score":4.9,"grape":"Garnacha","grape_slug":"garnacha","hood":"Gratallops, DOQ Priorat"},{"slug":"mas-martinet-tasting-falset","name":"Mas Martinet","topic":"tasting-rooms","url":"/spain/priorat/tasting-rooms/mas-martinet-tasting-falset/","lat":41.14399,"lng":0.81885,"score":4.7,"grape":"Garnacha","grape_slug":"garnacha","hood":"Falset, DOQ Priorat"},{"slug":"costers-del-siurana-tasting-gratallops","name":"Costers del Siurana (Clos de l'Obac)","topic":"tasting-rooms","url":"/spain/priorat/tasting-rooms/costers-del-siurana-tasting-gratallops/","lat":41.19341,"lng":0.77687,"score":4.7,"grape":"Garnacha","grape_slug":"garnacha","hood":"Gratallops, DOQ Priorat"},{"slug":"celler-val-llach-tasting-porrera","name":"Celler Val Llach","topic":"tasting-rooms","url":"/spain/priorat/tasting-rooms/celler-val-llach-tasting-porrera/","lat":41.18882,"lng":0.85604,"score":4.6,"grape":"Carinena","grape_slug":"carinena","hood":"Porrera, DOQ Priorat"},{"slug":"mas-doix-tasting-poboleda","name":"Mas Doix","topic":"tasting-rooms","url":"/spain/priorat/tasting-rooms/mas-doix-tasting-poboleda/","lat":41.23406,"lng":0.84521,"score":4.6,"grape":"Carinena","grape_slug":"carinena","hood":"Poboleda, DOQ Priorat"},{"slug":"cellers-cecilio-tasting-gratallops","name":"Cellers Cecilio","topic":"tasting-rooms","url":"/spain/priorat/tasting-rooms/cellers-cecilio-tasting-gratallops/","lat":41.19337,"lng":0.77818,"score":4.4,"grape":"Garnacha","grape_slug":"garnacha","hood":"Gratallops, DOQ Priorat"},{"slug":"cooperativa-falset-marca-tasting","name":"Cooperativa Falset Marca (Etim)","topic":"tasting-rooms","url":"/spain/priorat/tasting-rooms/cooperativa-falset-marca-tasting/","lat":41.14399,"lng":0.81885,"score":4.5,"grape":"Garnacha","grape_slug":"garnacha","hood":"Falset, DO Montsant"},{"slug":"scala-dei-tasting-escaladei","name":"Bodega Scala Dei","topic":"tasting-rooms","url":"/spain/priorat/tasting-rooms/scala-dei-tasting-escaladei/","lat":41.2476,"lng":0.81137,"score":4.6,"grape":"Garnacha","grape_slug":"garnacha","hood":"Escaladei, DOQ Priorat"},{"slug":"clos-erasmus-tasting-gratallops","name":"Clos Erasmus","topic":"tasting-rooms","url":"/spain/priorat/tasting-rooms/clos-erasmus-tasting-gratallops/","lat":41.19262,"lng":0.77786,"score":4.8,"grape":"Garnacha","grape_slug":"garnacha","hood":"Gratallops, DOQ Priorat"},{"slug":"celler-el-masroig-tasting","name":"Celler El Masroig","topic":"tasting-rooms","url":"/spain/priorat/tasting-rooms/celler-el-masroig-tasting/","lat":41.12561,"lng":0.7313,"score":4.2,"grape":"Garnacha","grape_slug":"garnacha","hood":"El Masroig, DO Montsant"},{"slug":"torres-salmos-tasting-gratallops","name":"Torres Salmos","topic":"tasting-rooms","url":"/spain/priorat/tasting-rooms/torres-salmos-tasting-gratallops/","lat":41.19341,"lng":0.77687,"score":4.3,"grape":"Garnacha","grape_slug":"garnacha","hood":"Gratallops, DOQ Priorat"},{"slug":"venus-la-universal-tasting-falset","name":"Venus la Universal","topic":"tasting-rooms","url":"/spain/priorat/tasting-rooms/venus-la-universal-tasting-falset/","lat":41.14399,"lng":0.81885,"score":4.4,"grape":"Garnacha","grape_slug":"garnacha","hood":"Falset, DO Montsant"},{"slug":"clos-galena-tasting-gratallops","name":"Clos Galena","topic":"tasting-rooms","url":"/spain/priorat/tasting-rooms/clos-galena-tasting-gratallops/","lat":41.19341,"lng":0.77687,"score":4.4,"grape":"Garnacha","grape_slug":"garnacha","hood":"Gratallops, DOQ Priorat"},{"slug":"mas-den-brunell-tasting-el-lloar","name":"Mas den Brunell","topic":"tasting-rooms","url":"/spain/priorat/tasting-rooms/mas-den-brunell-tasting-el-lloar/","lat":41.18527,"lng":0.75052,"score":4.3,"grape":"Garnacha","grape_slug":"garnacha","hood":"El Lloar, DOQ Priorat"},{"slug":"bar-cubeta-falset","name":"Bar Cubeta","topic":"wine-bars","url":"/spain/priorat/wine-bars/bar-cubeta-falset/","lat":41.14351,"lng":0.82213,"score":4.6,"hood":"Falset"},{"slug":"hostal-sport-wine-bar-falset","name":"Hostal Sport Wine Bar","topic":"wine-bars","url":"/spain/priorat/wine-bars/hostal-sport-wine-bar-falset/","lat":41.14399,"lng":0.81885,"score":4.5,"hood":"Falset"},{"slug":"cellers-cecilio-bar-gratallops","name":"Cellers Cecilio Village Bar","topic":"wine-bars","url":"/spain/priorat/wine-bars/cellers-cecilio-bar-gratallops/","lat":41.19337,"lng":0.77818,"score":4.3,"hood":"Gratallops, DOQ Priorat"},{"slug":"l-antic-forn-porrera","name":"L'Antic Forn de Pa","topic":"wine-bars","url":"/spain/priorat/wine-bars/l-antic-forn-porrera/","lat":41.18882,"lng":0.85604,"score":4.4,"hood":"Porrera, DOQ Priorat"},{"slug":"la-vinya-del-senyor-falset","name":"La Vinya del Senyor","topic":"wine-bars","url":"/spain/priorat/wine-bars/la-vinya-del-senyor-falset/","lat":41.14399,"lng":0.81885,"score":4.2,"hood":"Falset"},{"slug":"tast-de-priorat-gratallops","name":"Tast de Priorat","topic":"wine-bars","url":"/spain/priorat/wine-bars/tast-de-priorat-gratallops/","lat":41.19337,"lng":0.77818,"score":4.3,"hood":"Gratallops, DOQ Priorat"},{"slug":"bar-restaurant-escaladei","name":"Bar Restaurant Escaladei","topic":"wine-bars","url":"/spain/priorat/wine-bars/bar-restaurant-escaladei/","lat":41.25132,"lng":0.81172,"score":4.1,"hood":"Escaladei, DOQ Priorat"},{"slug":"vineria-priorat-bellmunt","name":"Vineria del Priorat","topic":"wine-bars","url":"/spain/priorat/wine-bars/vineria-priorat-bellmunt/","lat":41.16324,"lng":0.76615,"score":4.2,"hood":"Bellmunt del Priorat, DOQ Priorat"},{"slug":"bodega-al-porter-porrera","name":"Bodega al Porter","topic":"wine-bars","url":"/spain/priorat/wine-bars/bodega-al-porter-porrera/","lat":41.18882,"lng":0.85604,"score":4.1,"hood":"Porrera, DOQ Priorat"},{"slug":"vi-i-oli-falset","name":"Vi i Oli","topic":"wine-bars","url":"/spain/priorat/wine-bars/vi-i-oli-falset/","lat":41.14399,"lng":0.81885,"score":4.2,"hood":"Falset"},{"slug":"etim-tasting-bar-falset","name":"Etim Tasting Bar (Cooperativa Falset)","topic":"wine-bars","url":"/spain/priorat/wine-bars/etim-tasting-bar-falset/","lat":41.14399,"lng":0.81885,"score":4.4,"hood":"Falset"},{"slug":"celler-del-pont-el-lloar","name":"Celler del Pont","topic":"wine-bars","url":"/spain/priorat/wine-bars/celler-del-pont-el-lloar/","lat":41.18527,"lng":0.75052,"score":4.1,"hood":"El Lloar, DOQ Priorat"},{"slug":"scala-dei-wine-bar-escaladei","name":"Scala Dei Wine Bar","topic":"wine-bars","url":"/spain/priorat/wine-bars/scala-dei-wine-bar-escaladei/","lat":41.2476,"lng":0.81137,"score":4.5,"hood":"Escaladei, DOQ Priorat"},{"slug":"bar-restaurant-la-llicorella-falset","name":"Bar Restaurant La Llicorella","topic":"wine-bars","url":"/spain/priorat/wine-bars/bar-restaurant-la-llicorella-falset/","lat":41.14399,"lng":0.81885,"score":4.0,"hood":"Falset"},{"slug":"la-botiga-de-la-fira-falset","name":"La Botiga de la Fira","topic":"wine-bars","url":"/spain/priorat/wine-bars/la-botiga-de-la-fira-falset/","lat":41.281,"lng":0.7219,"score":4.3,"hood":"Falset"},{"slug":"celler-de-l-aspic-falset","name":"El Celler de l'Aspic","topic":"wine-restaurants","url":"/spain/priorat/wine-restaurants/celler-de-l-aspic-falset/","lat":41.14399,"lng":0.81885,"score":4.8,"hood":"Falset"},{"slug":"quinoa-bar-restaurant-falset","name":"Quinoa Bar Restaurant","topic":"wine-restaurants","url":"/spain/priorat/wine-restaurants/quinoa-bar-restaurant-falset/","lat":41.14351,"lng":0.82213,"score":4.4,"hood":"Falset"},{"slug":"restaurant-hostal-sport-falset","name":"Restaurant Hostal Sport","topic":"wine-restaurants","url":"/spain/priorat/wine-restaurants/restaurant-hostal-sport-falset/","lat":41.14399,"lng":0.81885,"score":4.6,"hood":"Falset"},{"slug":"ca-la-marina-la-vilella-alta","name":"Ca la Marina","topic":"wine-restaurants","url":"/spain/priorat/wine-restaurants/ca-la-marina-la-vilella-alta/","lat":41.22521,"lng":0.78132,"score":4.5,"hood":"La Vilella Alta, DOQ Priorat"},{"slug":"restaurant-brichs-falset","name":"Restaurant Brichs","topic":"wine-restaurants","url":"/spain/priorat/wine-restaurants/restaurant-brichs-falset/","lat":41.14351,"lng":0.82213,"score":4.3,"hood":"Falset"},{"slug":"restaurant-val-llach-porrera","name":"Restaurant Val Llach","topic":"wine-restaurants","url":"/spain/priorat/wine-restaurants/restaurant-val-llach-porrera/","lat":41.18882,"lng":0.85604,"score":4.4,"hood":"Porrera, DOQ Priorat"},{"slug":"restaurant-lo-celler-gratallops","name":"Restaurant Lo Celler","topic":"wine-restaurants","url":"/spain/priorat/wine-restaurants/restaurant-lo-celler-gratallops/","lat":41.19328,"lng":0.7773,"score":4.1,"hood":"Gratallops, DOQ Priorat"},{"slug":"restaurant-cartoixa-escaladei","name":"Restaurant Cartoixa d'Escaladei","topic":"wine-restaurants","url":"/spain/priorat/wine-restaurants/restaurant-cartoixa-escaladei/","lat":41.2476,"lng":0.81137,"score":4.2,"hood":"Escaladei, DOQ Priorat"},{"slug":"la-masia-del-priorat-poboleda","name":"La Masia del Priorat","topic":"wine-restaurants","url":"/spain/priorat/wine-restaurants/la-masia-del-priorat-poboleda/","lat":41.23352,"lng":0.84515,"score":4.3,"hood":"Poboleda, DOQ Priorat"},{"slug":"restaurant-verema-porrera","name":"Restaurant Verema","topic":"wine-restaurants","url":"/spain/priorat/wine-restaurants/restaurant-verema-porrera/","lat":41.18882,"lng":0.85604,"score":4.3,"hood":"Porrera, DOQ Priorat"},{"slug":"etim-cooperative-restaurant-falset","name":"Restaurant Cooperativa Falset Marca","topic":"wine-restaurants","url":"/spain/priorat/wine-restaurants/etim-cooperative-restaurant-falset/","lat":41.14399,"lng":0.81885,"score":4.4,"hood":"Falset"},{"slug":"restaurant-mas-martinet-falset","name":"Mas Martinet Estate Lunch","topic":"wine-restaurants","url":"/spain/priorat/wine-restaurants/restaurant-mas-martinet-falset/","lat":41.14399,"lng":0.81885,"score":4.5,"hood":"Falset, DOQ Priorat"},{"slug":"etim-wine-shop-falset","name":"Etim Wine Shop (Cooperativa Falset Marca)","topic":"wine-retailers","url":"/spain/priorat/wine-retailers/etim-wine-shop-falset/","lat":41.14399,"lng":0.81885,"score":4.3,"hood":"Falset"},{"slug":"scala-dei-cellar-shop-escaladei","name":"Bodega Scala Dei Shop","topic":"wine-retailers","url":"/spain/priorat/wine-retailers/scala-dei-cellar-shop-escaladei/","lat":41.2476,"lng":0.81137,"score":4.4,"hood":"Escaladei, DOQ Priorat"},{"slug":"hostal-sport-wine-shop-falset","name":"Hostal Sport Wine Cellar Shop","topic":"wine-retailers","url":"/spain/priorat/wine-retailers/hostal-sport-wine-shop-falset/","lat":41.14399,"lng":0.81885,"score":4.5,"hood":"Falset"},{"slug":"val-llach-winery-shop-porrera","name":"Celler Val Llach Shop","topic":"wine-retailers","url":"/spain/priorat/wine-retailers/val-llach-winery-shop-porrera/","lat":41.18882,"lng":0.85604,"score":4.3,"hood":"Porrera, DOQ Priorat"},{"slug":"celler-el-masroig-shop","name":"Celler El Masroig Shop","topic":"wine-retailers","url":"/spain/priorat/wine-retailers/celler-el-masroig-shop/","lat":41.12561,"lng":0.7313,"score":4.2,"hood":"El Masroig, DO Montsant"},{"slug":"el-celler-de-l-aspic-retail-falset","name":"El Celler de l'Aspic Wine Shop","topic":"wine-retailers","url":"/spain/priorat/wine-retailers/el-celler-de-l-aspic-retail-falset/","lat":41.14399,"lng":0.81885,"score":4.5,"hood":"Falset"},{"slug":"clos-mogador-direct-sales","name":"Clos Mogador Direct Sales","topic":"wine-retailers","url":"/spain/priorat/wine-retailers/clos-mogador-direct-sales/","lat":41.19341,"lng":0.77687,"score":4.6,"hood":"Gratallops, DOQ Priorat"},{"slug":"mas-doix-direct-sales-poboleda","name":"Mas Doix Direct Sales","topic":"wine-retailers","url":"/spain/priorat/wine-retailers/mas-doix-direct-sales-poboleda/","lat":41.23406,"lng":0.84521,"score":4.3,"hood":"Poboleda, DOQ Priorat"},{"slug":"costers-del-siurana-direct-sales","name":"Costers del Siurana Direct Sales","topic":"wine-retailers","url":"/spain/priorat/wine-retailers/costers-del-siurana-direct-sales/","lat":41.19341,"lng":0.77687,"score":4.4,"hood":"Gratallops, DOQ Priorat"},{"slug":"covides-cava-shop-falset-area","name":"Covides Cava Shop","topic":"wine-retailers","url":"/spain/priorat/wine-retailers/covides-cava-shop-falset-area/","lat":41.14399,"lng":0.81885,"score":3.8,"hood":"Falset outskirts"},{"slug":"doq-priorat-tasting-workshops-falset","name":"DOQ Priorat Tasting Workshops","topic":"wine-schools","url":"/spain/priorat/wine-schools/doq-priorat-tasting-workshops-falset/","lat":41.27981,"lng":0.72283,"score":4.5,"hood":"Falset"},{"slug":"clos-mogador-producer-tasting-workshop","name":"Clos Mogador Producer Tasting Masterclass","topic":"wine-schools","url":"/spain/priorat/wine-schools/clos-mogador-producer-tasting-workshop/","lat":41.19341,"lng":0.77687,"score":4.7,"hood":"Gratallops, DOQ Priorat"},{"slug":"alvaro-palacios-educational-visit","name":"Alvaro Palacios Educational Estate Visit","topic":"wine-schools","url":"/spain/priorat/wine-schools/alvaro-palacios-educational-visit/","lat":41.19355,"lng":0.77515,"score":4.8,"hood":"Gratallops, DOQ Priorat"},{"slug":"do-montsant-educational-workshop-falset","name":"DO Montsant Educational Workshop","topic":"wine-schools","url":"/spain/priorat/wine-schools/do-montsant-educational-workshop-falset/","lat":41.14399,"lng":0.81885,"score":4.3,"hood":"Falset"},{"slug":"scala-dei-winery-education-escaladei","name":"Scala Dei Winery Education Programme","topic":"wine-schools","url":"/spain/priorat/wine-schools/scala-dei-winery-education-escaladei/","lat":41.2476,"lng":0.81137,"score":4.5,"hood":"Escaladei, DOQ Priorat"},{"slug":"cooperative-falset-wine-education","name":"Cooperativa Falset Marca Wine Education","topic":"wine-schools","url":"/spain/priorat/wine-schools/cooperative-falset-wine-education/","lat":41.14399,"lng":0.81885,"score":4.3,"hood":"Falset"},{"slug":"cinc-pioners-tour-priorat","name":"Cinc Pioners Founding Estate Tour","topic":"wine-tours","url":"/spain/priorat/wine-tours/cinc-pioners-tour-priorat/","lat":41.27981,"lng":0.72283,"score":4.9,"hood":"Gratallops and surrounds, DOQ Priorat"},{"slug":"cartoixa-escaladei-wine-history-tour","name":"Cartoixa d'Escaladei Historical Wine Tour","topic":"wine-tours","url":"/spain/priorat/wine-tours/cartoixa-escaladei-wine-history-tour/","lat":41.2476,"lng":0.81137,"score":4.7,"hood":"Escaladei, DOQ Priorat"},{"slug":"llicorella-slate-terrace-hike-bellmunt","name":"Llicorella Slate Terrace Hike (Bellmunt-Porrera)","topic":"wine-tours","url":"/spain/priorat/wine-tours/llicorella-slate-terrace-hike-bellmunt/","lat":41.16324,"lng":0.76615,"score":4.6,"hood":"Bellmunt del Priorat and Porrera, DOQ Priorat"},{"slug":"falset-wine-route-day-tour","name":"Falset Wine Route Day Tour","topic":"wine-tours","url":"/spain/priorat/wine-tours/falset-wine-route-day-tour/","lat":41.27981,"lng":0.72283,"score":4.5,"hood":"Falset and surrounds"},{"slug":"cooperativa-falset-guided-tour","name":"Cooperativa Falset Marca Guided Tour","topic":"wine-tours","url":"/spain/priorat/wine-tours/cooperativa-falset-guided-tour/","lat":41.14399,"lng":0.81885,"score":4.5,"hood":"Falset"},{"slug":"priorat-old-vine-pruning-workshop","name":"Old-Vine Pruning and Viticulture Workshop","topic":"wine-tours","url":"/spain/priorat/wine-tours/priorat-old-vine-pruning-workshop/","lat":41.19341,"lng":0.77687,"score":4.6,"hood":"Gratallops, DOQ Priorat"},{"slug":"ermita-single-vineyard-view-tour","name":"L'Ermita Single-Vineyard Panorama Walk","topic":"wine-tours","url":"/spain/priorat/wine-tours/ermita-single-vineyard-view-tour/","lat":41.19759,"lng":0.78049,"score":4.8,"hood":"Gratallops, DOQ Priorat"},{"slug":"priorat-harvest-experience-september","name":"Priorat Harvest Experience (September)","topic":"wine-tours","url":"/spain/priorat/wine-tours/priorat-harvest-experience-september/","lat":41.27981,"lng":0.72283,"score":4.7,"hood":"Falset and surrounds"},{"slug":"scala-dei-marc-escaladei","name":"Bodega Scala Dei Marc de Garnacha","topic":"distilleries","url":"/spain/priorat/distilleries/scala-dei-marc-escaladei/","lat":41.2476,"lng":0.81137,"score":4.3,"classification":"Marc DOQ Priorat","hood":"Escaladei, DOQ Priorat"},{"slug":"cooperativa-falset-marc-etim","name":"Cooperativa Falset Marca Marc Etim","topic":"distilleries","url":"/spain/priorat/distilleries/cooperativa-falset-marc-etim/","lat":41.14399,"lng":0.81885,"score":4.0,"classification":"Marc de vi (DO Montsant grape pomace)","hood":"Falset, DO Montsant"},{"slug":"mas-martinet-marc-falset","name":"Mas Martinet Marc de Garnacha","topic":"distilleries","url":"/spain/priorat/distilleries/mas-martinet-marc-falset/","lat":41.14399,"lng":0.81885,"score":4.2,"classification":"Marc DOQ Priorat","hood":"Falset, DOQ Priorat"},{"slug":"clos-mogador-marc-gratallops","name":"Clos Mogador Marc de Priorat","topic":"distilleries","url":"/spain/priorat/distilleries/clos-mogador-marc-gratallops/","lat":41.19341,"lng":0.77687,"score":4.4,"classification":"Marc DOQ Priorat","hood":"Gratallops, DOQ Priorat"},{"slug":"celler-el-masroig-marc","name":"Celler El Masroig Marc de Garnacha","topic":"distilleries","url":"/spain/priorat/distilleries/celler-el-masroig-marc/","lat":41.12561,"lng":0.7313,"score":4.0,"classification":"Marc de vi (DO Montsant grape pomace)","hood":"El Masroig, DO Montsant"},{"slug":"costers-del-siurana-marc","name":"Costers del Siurana Marc de l'Obac","topic":"distilleries","url":"/spain/priorat/distilleries/costers-del-siurana-marc/","lat":41.19341,"lng":0.77687,"score":4.2,"classification":"Marc DOQ Priorat","hood":"Gratallops, DOQ Priorat"},{"slug":"torres-marc-penedes","name":"Torres Marc del Penedes","topic":"distilleries","url":"/spain/priorat/distilleries/torres-marc-penedes/","lat":41.35518,"lng":1.66761,"score":4.3,"classification":"Catalan marc (grappa-style)","hood":"Pacs del Penedes, Penedes"},{"slug":"mas-doix-marc-poboleda","name":"Mas Doix Marc de Carinena","topic":"distilleries","url":"/spain/priorat/distilleries/mas-doix-marc-poboleda/","lat":41.23406,"lng":0.84521,"score":4.3,"classification":"Marc DOQ Priorat","hood":"Poboleda, DOQ Priorat"},{"slug":"val-llach-marc-porrera","name":"Celler Val Llach Marc de Carinena","topic":"distilleries","url":"/spain/priorat/distilleries/val-llach-marc-porrera/","lat":41.18882,"lng":0.85604,"score":4.2,"classification":"Marc DOQ Priorat","hood":"Porrera, DOQ Priorat"},{"slug":"clos-galena-marc-gratallops","name":"Clos Galena Marc de Garnacha","topic":"distilleries","url":"/spain/priorat/distilleries/clos-galena-marc-gratallops/","lat":41.19341,"lng":0.77687,"score":4.1,"classification":"Marc DOQ Priorat","hood":"Gratallops, DOQ Priorat"},{"slug":"cartoixa-escaladei-monastery-museum","name":"Cartoixa d'Escaladei","topic":"wine-museums","url":"/spain/priorat/wine-museums/cartoixa-escaladei-monastery-museum/","lat":41.24806,"lng":0.81112,"score":4.8,"hood":"Escaladei, DOQ Priorat"},{"slug":"cooperativa-falset-marca-heritage-museum","name":"Cooperativa Falset Marca Heritage Museum","topic":"wine-museums","url":"/spain/priorat/wine-museums/cooperativa-falset-marca-heritage-museum/","lat":41.14399,"lng":0.81885,"score":4.5,"hood":"Falset"},{"slug":"centre-visitants-priorat-falset","name":"Centre de Visitants del Priorat","topic":"wine-museums","url":"/spain/priorat/wine-museums/centre-visitants-priorat-falset/","lat":41.27981,"lng":0.72283,"score":4.4,"hood":"Falset"},{"slug":"museu-de-les-mines-bellmunt","name":"Museu de les Mines de Bellmunt del Priorat","topic":"wine-museums","url":"/spain/priorat/wine-museums/museu-de-les-mines-bellmunt/","lat":41.16324,"lng":0.76615,"score":4.3,"hood":"Bellmunt del Priorat"},{"slug":"museu-comarcal-del-priorat-falset","name":"Museu Comarcal del Priorat","topic":"wine-museums","url":"/spain/priorat/wine-museums/museu-comarcal-del-priorat-falset/","lat":41.27981,"lng":0.72283,"score":4.2,"hood":"Falset"},{"slug":"hostal-sport-falset","name":"Hostal Sport","topic":"wine-hotels","url":"/spain/priorat/wine-hotels/hostal-sport-falset/","lat":41.14399,"lng":0.81885,"score":4.7,"hood":"Falset"},{"slug":"la-rectoria-de-la-vilella-baixa","name":"La Rectoria de la Vilella Baixa","topic":"wine-hotels","url":"/spain/priorat/wine-hotels/la-rectoria-de-la-vilella-baixa/","lat":41.22107,"lng":0.761,"score":4.6,"hood":"La Vilella Baixa, DOQ Priorat"},{"slug":"mas-petit-porrera","name":"Mas Petit","topic":"wine-hotels","url":"/spain/priorat/wine-hotels/mas-petit-porrera/","lat":41.18882,"lng":0.85604,"score":4.5,"hood":"Porrera, DOQ Priorat"},{"slug":"hotel-casa-aliva-falset","name":"Hotel Casa Aliva","topic":"wine-hotels","url":"/spain/priorat/wine-hotels/hotel-casa-aliva-falset/","lat":41.14562,"lng":0.82074,"score":4.4,"hood":"Falset"},{"slug":"cal-lleal-falset","name":"Cal Lleal Rural House","topic":"wine-hotels","url":"/spain/priorat/wine-hotels/cal-lleal-falset/","lat":41.14572,"lng":0.81968,"score":4.1,"hood":"Falset"},{"slug":"finca-trossos-del-priorat-gratallops","name":"Finca Trossos del Priorat","topic":"wine-hotels","url":"/spain/priorat/wine-hotels/finca-trossos-del-priorat-gratallops/","lat":41.19341,"lng":0.77687,"score":4.5,"hood":"Gratallops, DOQ Priorat"},{"slug":"hotel-el-priorat-bellmunt","name":"Hotel Rural el Priorat","topic":"wine-hotels","url":"/spain/priorat/wine-hotels/hotel-el-priorat-bellmunt/","lat":41.16324,"lng":0.76615,"score":4.2,"hood":"Bellmunt del Priorat"},{"slug":"masia-els-comellars-gratallops","name":"Masia els Comellars","topic":"wine-hotels","url":"/spain/priorat/wine-hotels/masia-els-comellars-gratallops/","lat":41.19341,"lng":0.77687,"score":4.4,"hood":"Gratallops, DOQ Priorat"},{"slug":"hostal-les-vinyes-el-lloar","name":"Hostal les Vinyes","topic":"wine-hotels","url":"/spain/priorat/wine-hotels/hostal-les-vinyes-el-lloar/","lat":41.18527,"lng":0.75052,"score":4.0,"hood":"El Lloar, DOQ Priorat"},{"slug":"mas-den-gil-batea","name":"Mas d'en Gil Rural Stay","topic":"wine-hotels","url":"/spain/priorat/wine-hotels/mas-den-gil-batea/","lat":41.09428,"lng":0.31406,"score":4.4,"hood":"Batea, Terra Alta"},{"slug":"celler-val-llach-caseta-porrera","name":"Celler Val Llach Guest Caseta","topic":"wine-hotels","url":"/spain/priorat/wine-hotels/celler-val-llach-caseta-porrera/","lat":41.18882,"lng":0.85604,"score":4.7,"hood":"Porrera, DOQ Priorat"},{"slug":"hotel-la-sequera-la-vilella-alta","name":"La Sequera Vineyard Hotel","topic":"wine-hotels","url":"/spain/priorat/wine-hotels/hotel-la-sequera-la-vilella-alta/","lat":41.22528,"lng":0.7795,"score":4.4,"hood":"La Vilella Alta, DOQ Priorat"},{"slug":"priorat-harvest-picking-gratallops","name":"DOQ Priorat Harvest Day (September)","topic":"wine-experiences","url":"/spain/priorat/wine-experiences/priorat-harvest-picking-gratallops/","lat":41.19341,"lng":0.77687,"score":4.8,"hood":"Gratallops, DOQ Priorat"},{"slug":"blending-workshop-clos-mogador","name":"Garnacha Blending Workshop at Clos Mogador","topic":"wine-experiences","url":"/spain/priorat/wine-experiences/blending-workshop-clos-mogador/","lat":41.19341,"lng":0.77687,"score":4.8,"hood":"Gratallops, DOQ Priorat"},{"slug":"llicorella-geology-and-wine-pairing","name":"Llicorella Soil and Wine Pairing Experience","topic":"wine-experiences","url":"/spain/priorat/wine-experiences/llicorella-geology-and-wine-pairing/","lat":41.27981,"lng":0.72283,"score":4.6,"hood":"Falset and Gratallops, DOQ Priorat"},{"slug":"cinc-pioners-vertical-tasting","name":"Cinc Pioners Vertical Tasting (1989 Revival Estates)","topic":"wine-experiences","url":"/spain/priorat/wine-experiences/cinc-pioners-vertical-tasting/","lat":41.27981,"lng":0.72283,"score":4.9,"hood":"Falset, DOQ Priorat"},{"slug":"celler-val-llach-winemaker-dinner-porrera","name":"Winemaker Dinner at Celler Val Llach","topic":"wine-experiences","url":"/spain/priorat/wine-experiences/celler-val-llach-winemaker-dinner-porrera/","lat":41.18882,"lng":0.85604,"score":4.7,"hood":"Porrera, DOQ Priorat"},{"slug":"cartoixa-night-tasting-escaladei","name":"Cartoixa Night Tasting by Lantern","topic":"wine-experiences","url":"/spain/priorat/wine-experiences/cartoixa-night-tasting-escaladei/","lat":41.2476,"lng":0.81137,"score":4.6,"hood":"Escaladei, DOQ Priorat"},{"slug":"cooperative-falset-harvest-celebration","name":"Cooperativa Falset Harvest Celebration Weekend","topic":"wine-experiences","url":"/spain/priorat/wine-experiences/cooperative-falset-harvest-celebration/","lat":41.14399,"lng":0.81885,"score":4.5,"hood":"Falset"},{"slug":"priorat-bike-and-wine-gratallops","name":"Priorat Cycling and Wine Experience","topic":"wine-experiences","url":"/spain/priorat/wine-experiences/priorat-bike-and-wine-gratallops/","lat":41.27981,"lng":0.72283,"score":4.5,"hood":"Falset and Gratallops, DOQ Priorat"},{"slug":"fira-del-vi-falset-may","name":"Fira del Vi de Falset Tasting Experience","topic":"wine-experiences","url":"/spain/priorat/wine-experiences/fira-del-vi-falset-may/","lat":41.14399,"lng":0.81885,"score":4.7,"hood":"Falset"},{"slug":"mas-doix-vertical-tasting-poboleda","name":"Mas Doix Old-Vine Vertical Tasting","topic":"wine-experiences","url":"/spain/priorat/wine-experiences/mas-doix-vertical-tasting-poboleda/","lat":41.23406,"lng":0.84521,"score":4.6,"hood":"Poboleda, DOQ Priorat"},{"slug":"terroir-al-limit","name":"Terroir Al Limit","topic":"hidden-gems","url":"/spain/priorat/hidden-gems/terroir-al-limit/","lat":41.21318,"lng":0.81169,"score":4.8,"classification":"DOQ Priorat","grape":"Garnacha","grape_slug":"garnacha","hood":"Torroja del Priorat"},{"slug":"mas-den-gil","name":"Mas d'en Gil","topic":"hidden-gems","url":"/spain/priorat/hidden-gems/mas-den-gil/","lat":41.16324,"lng":0.76615,"score":4.6,"classification":"DOQ Priorat","grape":"Garnacha","grape_slug":"garnacha","hood":"Bellmunt del Priorat"},{"slug":"nin-ortiz","name":"Nin-Ortiz","topic":"hidden-gems","url":"/spain/priorat/hidden-gems/nin-ortiz/","lat":41.18935,"lng":0.85642,"score":4.7,"classification":"DOQ Priorat","grape":"Carinena","grape_slug":"carinena","hood":"Porrera"},{"slug":"ferrer-bobet","name":"Ferrer Bobet","topic":"hidden-gems","url":"/spain/priorat/hidden-gems/ferrer-bobet/","lat":41.18943,"lng":0.85573,"score":4.5,"classification":"DOQ Priorat","grape":"Carinena","grape_slug":"carinena","hood":"Porrera"},{"slug":"cellers-cecilio","name":"Cellers Cecilio","topic":"hidden-gems","url":"/spain/priorat/hidden-gems/cellers-cecilio/","lat":41.1936,"lng":0.7775,"score":4.4,"classification":"DOQ Priorat","grape":"Garnacha","grape_slug":"garnacha","hood":"Gratallops"},{"slug":"arrels-del-priorat","name":"Celler Arrels del Priorat","topic":"hidden-gems","url":"/spain/priorat/hidden-gems/arrels-del-priorat/","lat":41.20686,"lng":0.79758,"score":4.6,"classification":"DOQ Priorat","grape":"Garnacha","grape_slug":"garnacha","hood":"Gratallops"},{"slug":"pasanau-hermanos","name":"Cellar Pasanau Germans","topic":"hidden-gems","url":"/spain/priorat/hidden-gems/pasanau-hermanos/","lat":41.26662,"lng":0.84263,"score":4.4,"classification":"DOQ Priorat","grape":"Garnacha","grape_slug":"garnacha","hood":"La Morera de Montsant"},{"slug":"clos-figueras","name":"Clos Figueras","topic":"hidden-gems","url":"/spain/priorat/hidden-gems/clos-figueras/","lat":41.18882,"lng":0.85604,"score":4.4,"classification":"DOQ Priorat","grape":"Garnacha","grape_slug":"garnacha","hood":"Porrera"},{"slug":"mas-den-gil-biodynamic","name":"Mas d'en Gil","topic":"dietary","diet":"biodynamic","url":"/spain/priorat/dietary/mas-den-gil-biodynamic/","lat":41.16324,"lng":0.76615,"score":4.6},{"slug":"clos-erasmus-biodynamic","name":"Clos i Terrasses (Clos Erasmus)","topic":"dietary","diet":"biodynamic","url":"/spain/priorat/dietary/clos-erasmus-biodynamic/","lat":41.16941,"lng":0.72663,"score":4.7},{"slug":"mas-martinet-organic","name":"Mas Martinet Viticultors","topic":"dietary","diet":"organic","url":"/spain/priorat/dietary/mas-martinet-organic/","lat":41.14399,"lng":0.81885,"score":4.8},{"slug":"clos-mogador-organic","name":"Clos Mogador","topic":"dietary","diet":"organic","url":"/spain/priorat/dietary/clos-mogador-organic/","lat":41.19341,"lng":0.77687,"score":4.7},{"slug":"terroir-al-limit-organic","name":"Terroir Al Limit","topic":"dietary","diet":"organic","url":"/spain/priorat/dietary/terroir-al-limit-organic/","lat":41.21318,"lng":0.81169,"score":4.7},{"slug":"terroir-al-limit-natural","name":"Terroir Al Limit","topic":"dietary","diet":"natural","url":"/spain/priorat/dietary/terroir-al-limit-natural/","lat":41.21318,"lng":0.81169,"score":4.8},{"slug":"nin-ortiz-natural","name":"Nin-Ortiz","topic":"dietary","diet":"natural","url":"/spain/priorat/dietary/nin-ortiz-natural/","lat":41.18935,"lng":0.85642,"score":4.6},{"slug":"mas-martinet-natural-leaning","name":"Mas Martinet Viticultors","topic":"dietary","diet":"natural","url":"/spain/priorat/dietary/mas-martinet-natural-leaning/","lat":41.14399,"lng":0.81885,"score":4.5},{"slug":"terroir-al-limit-vegan","name":"Terroir Al Limit","topic":"dietary","diet":"vegan_winemaking","url":"/spain/priorat/dietary/terroir-al-limit-vegan/","lat":41.21318,"lng":0.81169,"score":4.7},{"slug":"cims-de-porrera-vegan","name":"Cims de Porrera","topic":"dietary","diet":"vegan_winemaking","url":"/spain/priorat/dietary/cims-de-porrera-vegan/","lat":41.18935,"lng":0.85642,"score":4.4},{"slug":"terroir-al-limit-lowsulfite","name":"Terroir Al Limit","topic":"dietary","diet":"lowsulfite","url":"/spain/priorat/dietary/terroir-al-limit-lowsulfite/","lat":41.21318,"lng":0.81169,"score":4.7},{"slug":"nin-ortiz-lowsulfite","name":"Nin-Ortiz","topic":"dietary","diet":"lowsulfite","url":"/spain/priorat/dietary/nin-ortiz-lowsulfite/","lat":41.18935,"lng":0.85642,"score":4.5},{"slug":"mas-martinet-lowsulfite","name":"Mas Martinet Viticultors","topic":"dietary","diet":"lowsulfite","url":"/spain/priorat/dietary/mas-martinet-lowsulfite/","lat":41.14399,"lng":0.81885,"score":4.5},{"slug":"clos-mogador-lowsulfite","name":"Clos Mogador","topic":"dietary","diet":"lowsulfite","url":"/spain/priorat/dietary/clos-mogador-lowsulfite/","lat":41.19341,"lng":0.77687,"score":4.5}]}