{"city":{"slug":"douro","name":"Douro Valley","country":"Portugal","center":[41.15485,-7.74585],"n":120},"pins":[{"slug":"taylors","name":"Taylor's Port","topic":"vineyards","url":"/portugal/douro/vineyards/taylors/","lat":41.13434,"lng":-8.6144,"score":4.8,"classification":"DOC Porto","grape":"Touriga Nacional","grape_slug":"touriga-nacional","hood":"Vila Nova de Gaia"},{"slug":"fonseca","name":"Fonseca Porto","topic":"vineyards","url":"/portugal/douro/vineyards/fonseca/","lat":41.13557,"lng":-8.61412,"score":4.7,"classification":"DOC Porto","grape":"Touriga Nacional","grape_slug":"touriga-nacional","hood":"Vila Nova de Gaia"},{"slug":"grahams","name":"Graham's Port","topic":"vineyards","url":"/portugal/douro/vineyards/grahams/","lat":41.13438,"lng":-8.63139,"score":4.8,"classification":"DOC Porto","grape":"Touriga Nacional","grape_slug":"touriga-nacional","hood":"Vila Nova de Gaia"},{"slug":"dows","name":"Dow's Port","topic":"vineyards","url":"/portugal/douro/vineyards/dows/","lat":41.18853,"lng":-7.53912,"score":4.7,"classification":"DOC Porto","grape":"Touriga Nacional","grape_slug":"touriga-nacional","hood":"Pinhao"},{"slug":"warres","name":"Warre's Port","topic":"vineyards","url":"/portugal/douro/vineyards/warres/","lat":41.137,"lng":-8.611,"score":4.6,"classification":"DOC Porto","grape":"Touriga Nacional","grape_slug":"touriga-nacional","hood":"Vila Nova de Gaia"},{"slug":"cockburns","name":"Cockburn's Port","topic":"vineyards","url":"/portugal/douro/vineyards/cockburns/","lat":41.13369,"lng":-8.6182,"score":4.5,"classification":"DOC Porto","grape":"Touriga Nacional","grape_slug":"touriga-nacional","hood":"Vila Nova de Gaia"},{"slug":"sandeman","name":"Sandeman","topic":"vineyards","url":"/portugal/douro/vineyards/sandeman/","lat":41.13755,"lng":-8.61246,"score":4.5,"classification":"DOC Porto","grape":"Touriga Nacional","grape_slug":"touriga-nacional","hood":"Vila Nova de Gaia"},{"slug":"quinta-do-seixo","name":"Quinta do Seixo (Sandeman)","topic":"vineyards","url":"/portugal/douro/vineyards/quinta-do-seixo/","lat":41.15828,"lng":-7.55642,"score":4.4,"classification":"DOC Porto and DOC Douro","grape":"Touriga Nacional","grape_slug":"touriga-nacional","hood":"Tabuaco"},{"slug":"ferreira","name":"Ferreira","topic":"vineyards","url":"/portugal/douro/vineyards/ferreira/","lat":41.13691,"lng":-8.61929,"score":4.6,"classification":"DOC Porto","grape":"Touriga Nacional","grape_slug":"touriga-nacional","hood":"Vila Nova de Gaia"},{"slug":"calem","name":"Calem","topic":"vineyards","url":"/portugal/douro/vineyards/calem/","lat":41.13802,"lng":-8.61098,"score":4.3,"classification":"DOC Porto","grape":"Touriga Nacional","grape_slug":"touriga-nacional","hood":"Vila Nova de Gaia"},{"slug":"kopke","name":"Kopke","topic":"vineyards","url":"/portugal/douro/vineyards/kopke/","lat":41.138,"lng":-8.61142,"score":4.6,"classification":"DOC Porto and DOC Douro","grape":"Touriga Nacional","grape_slug":"touriga-nacional","hood":"Vila Nova de Gaia"},{"slug":"burmester","name":"Burmester","topic":"vineyards","url":"/portugal/douro/vineyards/burmester/","lat":41.13898,"lng":-8.60933,"score":4.3,"classification":"DOC Porto","grape":"Touriga Nacional","grape_slug":"touriga-nacional","hood":"Vila Nova de Gaia"},{"slug":"niepoort","name":"Niepoort","topic":"vineyards","url":"/portugal/douro/vineyards/niepoort/","lat":41.13289,"lng":-8.61112,"score":4.7,"classification":"DOC Porto and DOC Douro","grape":"Touriga Franca","grape_slug":"touriga-franca","hood":"Vila Nova de Gaia"},{"slug":"real-companhia-velha","name":"Real Companhia Velha","topic":"vineyards","url":"/portugal/douro/vineyards/real-companhia-velha/","lat":41.13271,"lng":-8.60111,"score":4.4,"classification":"DOC Porto and DOC Douro","grape":"Touriga Nacional","grape_slug":"touriga-nacional","hood":"Vila Nova de Gaia"},{"slug":"croft","name":"Croft (Quinta da Roeda)","topic":"vineyards","url":"/portugal/douro/vineyards/croft/","lat":41.1867,"lng":-7.52944,"score":4.5,"classification":"DOC Porto and DOC Douro","grape":"Touriga Nacional","grape_slug":"touriga-nacional","hood":"Pinhao"},{"slug":"quinta-do-noval","name":"Quinta do Noval","topic":"vineyards","url":"/portugal/douro/vineyards/quinta-do-noval/","lat":41.188,"lng":-7.546,"score":4.8,"classification":"DOC Porto and DOC Douro","grape":"Touriga Nacional","grape_slug":"touriga-nacional","hood":"Pinhao"},{"slug":"quinta-do-crasto","name":"Quinta do Crasto","topic":"vineyards","url":"/portugal/douro/vineyards/quinta-do-crasto/","lat":41.18428,"lng":-7.63493,"score":4.8,"classification":"DOC Douro and DOC Porto","grape":"Touriga Nacional","grape_slug":"touriga-nacional","hood":"Sabrosa"},{"slug":"quinta-do-vale-meao","name":"Quinta do Vale Meao","topic":"vineyards","url":"/portugal/douro/vineyards/quinta-do-vale-meao/","lat":41.1547,"lng":-7.12377,"score":4.8,"classification":"DOC Douro and DOC Porto","grape":"Touriga Nacional","grape_slug":"touriga-nacional","hood":"Douro Superior"},{"slug":"quinta-do-vallado","name":"Quinta do Vallado","topic":"vineyards","url":"/portugal/douro/vineyards/quinta-do-vallado/","lat":41.17668,"lng":-7.74585,"score":4.6,"classification":"DOC Douro and DOC Porto","grape":"Touriga Nacional","grape_slug":"touriga-nacional","hood":"Peso da Regua"},{"slug":"quinta-do-vesuvio","name":"Quinta do Vesuvio","topic":"vineyards","url":"/portugal/douro/vineyards/quinta-do-vesuvio/","lat":41.14143,"lng":-7.2644,"score":4.7,"classification":"DOC Porto and DOC Douro","grape":"Touriga Nacional","grape_slug":"touriga-nacional","hood":"Douro Superior"},{"slug":"quinta-nova","name":"Quinta Nova de Nossa Senhora do Carmo","topic":"vineyards","url":"/portugal/douro/vineyards/quinta-nova/","lat":41.16236,"lng":-7.59543,"score":4.6,"classification":"DOC Douro and DOC Porto","grape":"Touriga Nacional","grape_slug":"touriga-nacional","hood":"Cima Corgo"},{"slug":"quinta-do-portal","name":"Quinta do Portal","topic":"vineyards","url":"/portugal/douro/vineyards/quinta-do-portal/","lat":41.24684,"lng":-7.57723,"score":4.4,"classification":"DOC Douro and DOC Porto","grape":"Touriga Nacional","grape_slug":"touriga-nacional","hood":"Sabrosa"},{"slug":"quinta-de-la-rosa","name":"Quinta de la Rosa","topic":"vineyards","url":"/portugal/douro/vineyards/quinta-de-la-rosa/","lat":41.18233,"lng":-7.55248,"score":4.6,"classification":"DOC Douro and DOC Porto","grape":"Touriga Nacional","grape_slug":"touriga-nacional","hood":"Pinhao"},{"slug":"wine-and-soul","name":"Wine & Soul","topic":"vineyards","url":"/portugal/douro/vineyards/wine-and-soul/","lat":41.188,"lng":-7.546,"score":4.6,"classification":"DOC Douro and DOC Porto","grape":"Touriga Nacional","grape_slug":"touriga-nacional","hood":"Pinhao"},{"slug":"chryseia","name":"Prats & Symington (Chryseia)","topic":"vineyards","url":"/portugal/douro/vineyards/chryseia/","lat":41.145,"lng":-7.403,"score":4.7,"classification":"DOC Douro","grape":"Touriga Nacional","grape_slug":"touriga-nacional","hood":"Cima Corgo"},{"slug":"quinta-do-bomfim","name":"Quinta do Bomfim","topic":"vineyards","url":"/portugal/douro/vineyards/quinta-do-bomfim/","lat":41.18853,"lng":-7.53912,"score":4.7,"classification":"DOC Porto and DOC Douro","grape":"Touriga Nacional","grape_slug":"touriga-nacional","hood":"Pinhao"},{"slug":"quinta-da-pacheca","name":"Quinta da Pacheca","topic":"vineyards","url":"/portugal/douro/vineyards/quinta-da-pacheca/","lat":41.095,"lng":-7.809,"score":4.5,"classification":"DOC Douro and DOC Porto","grape":"Touriga Nacional","grape_slug":"touriga-nacional","hood":"Lamego"},{"slug":"quinta-do-tedo","name":"Quinta do Tedo","topic":"vineyards","url":"/portugal/douro/vineyards/quinta-do-tedo/","lat":41.1,"lng":-7.69,"score":4.4,"classification":"DOC Porto and DOC Douro","grape":"Touriga Nacional","grape_slug":"touriga-nacional","hood":"Baixo Corgo"},{"slug":"quinta-do-panascal","name":"Quinta do Panascal (Fonseca)","topic":"vineyards","url":"/portugal/douro/vineyards/quinta-do-panascal/","lat":41.1467,"lng":-7.57362,"score":4.4,"classification":"DOC Porto and DOC Douro","grape":"Touriga Nacional","grape_slug":"touriga-nacional","hood":"Tabuaco"},{"slug":"quinta-do-pego","name":"Quinta do Pego","topic":"vineyards","url":"/portugal/douro/vineyards/quinta-do-pego/","lat":41.16485,"lng":-7.56709,"score":4.3,"classification":"DOC Douro and DOC Porto","grape":"Touriga Nacional","grape_slug":"touriga-nacional","hood":"Tabuaco"},{"slug":"quevedo","name":"Quevedo","topic":"vineyards","url":"/portugal/douro/vineyards/quevedo/","lat":41.145,"lng":-7.403,"score":4.3,"classification":"DOC Douro and DOC Porto","grape":"Touriga Nacional","grape_slug":"touriga-nacional","hood":"Douro Superior"},{"slug":"vallegre","name":"Vallegre (Quinta da Vista Alegre)","topic":"vineyards","url":"/portugal/douro/vineyards/vallegre/","lat":41.185,"lng":-7.545,"score":4.1,"classification":"DOC Porto and DOC Douro","grape":"Touriga Nacional","grape_slug":"touriga-nacional","hood":"Cima Corgo"},{"slug":"alves-de-sousa","name":"Domingos Alves de Sousa","topic":"vineyards","url":"/portugal/douro/vineyards/alves-de-sousa/","lat":41.23254,"lng":-7.76333,"score":4.5,"classification":"DOC Douro and DOC Porto","grape":"Touriga Nacional","grape_slug":"touriga-nacional","hood":"Baixo Corgo"},{"slug":"quinta-da-romaneira","name":"Quinta da Romaneira","topic":"vineyards","url":"/portugal/douro/vineyards/quinta-da-romaneira/","lat":41.21844,"lng":-7.48513,"score":4.5,"classification":"DOC Douro and DOC Porto","grape":"Touriga Nacional","grape_slug":"touriga-nacional","hood":"Alijo"},{"slug":"quinta-da-avessada","name":"Quinta da Avessada","topic":"vineyards","url":"/portugal/douro/vineyards/quinta-da-avessada/","lat":41.26692,"lng":-7.4987,"score":4.2,"classification":"DOC Douro and DOC Porto","grape":"Moscatel Galego Branco","grape_slug":"moscatel-galego-branco","hood":"Alijo"},{"slug":"taylors-port-cellars-gaia","name":"Taylor's Port Cellars","topic":"tasting-rooms","url":"/portugal/douro/tasting-rooms/taylors-port-cellars-gaia/","lat":41.13434,"lng":-8.6144,"score":4.7,"grape":"Touriga Nacional","grape_slug":"touriga-nacional","hood":"Vila Nova de Gaia"},{"slug":"grahams-1890-lodge-gaia","name":"Graham's 1890 Lodge","topic":"tasting-rooms","url":"/portugal/douro/tasting-rooms/grahams-1890-lodge-gaia/","lat":41.13438,"lng":-8.63139,"score":4.8,"grape":"Touriga Nacional","grape_slug":"touriga-nacional","hood":"Vila Nova de Gaia"},{"slug":"sandeman-cellars-gaia","name":"Sandeman Cellars","topic":"tasting-rooms","url":"/portugal/douro/tasting-rooms/sandeman-cellars-gaia/","lat":41.13755,"lng":-8.61246,"score":4.5,"grape":"Touriga Nacional","grape_slug":"touriga-nacional","hood":"Vila Nova de Gaia"},{"slug":"calem-cellars-gaia","name":"Cálem Cellars","topic":"tasting-rooms","url":"/portugal/douro/tasting-rooms/calem-cellars-gaia/","lat":41.13802,"lng":-8.61098,"score":4.4,"grape":"Touriga Nacional","grape_slug":"touriga-nacional","hood":"Vila Nova de Gaia"},{"slug":"kopke-house-gaia","name":"Casa Kopke","topic":"tasting-rooms","url":"/portugal/douro/tasting-rooms/kopke-house-gaia/","lat":41.138,"lng":-8.61142,"score":4.6,"grape":"Touriga Nacional","grape_slug":"touriga-nacional","hood":"Vila Nova de Gaia"},{"slug":"croft-port-cellars-gaia","name":"Croft Port Cellars","topic":"tasting-rooms","url":"/portugal/douro/tasting-rooms/croft-port-cellars-gaia/","lat":41.13446,"lng":-8.61713,"score":4.4,"grape":"Touriga Nacional","grape_slug":"touriga-nacional","hood":"Vila Nova de Gaia"},{"slug":"ferreira-cellars-gaia","name":"Ferreira Cellars","topic":"tasting-rooms","url":"/portugal/douro/tasting-rooms/ferreira-cellars-gaia/","lat":41.13691,"lng":-8.61929,"score":4.4,"grape":"Touriga Nacional","grape_slug":"touriga-nacional","hood":"Vila Nova de Gaia"},{"slug":"quinta-do-bomfim-pinhao","name":"Quinta do Bomfim","topic":"tasting-rooms","url":"/portugal/douro/tasting-rooms/quinta-do-bomfim-pinhao/","lat":41.18853,"lng":-7.53912,"score":4.7,"grape":"Touriga Nacional","grape_slug":"touriga-nacional","hood":"Pinhão, Cima Corgo"},{"slug":"quinta-do-seixo-valenca","name":"Quinta do Seixo (Sandeman)","topic":"tasting-rooms","url":"/portugal/douro/tasting-rooms/quinta-do-seixo-valenca/","lat":41.15828,"lng":-7.55642,"score":4.5,"grape":"Touriga Nacional","grape_slug":"touriga-nacional","hood":"Valença do Douro, Cima Corgo"},{"slug":"quinta-das-carvalhas-pinhao","name":"Quinta das Carvalhas","topic":"tasting-rooms","url":"/portugal/douro/tasting-rooms/quinta-das-carvalhas-pinhao/","lat":41.1822,"lng":-7.53297,"score":4.6,"grape":"Touriga Nacional","grape_slug":"touriga-nacional","hood":"Pinhão, Cima Corgo"},{"slug":"quinta-do-crasto-gouvinhas","name":"Quinta do Crasto","topic":"tasting-rooms","url":"/portugal/douro/tasting-rooms/quinta-do-crasto-gouvinhas/","lat":41.18428,"lng":-7.63493,"score":4.7,"grape":"Touriga Nacional","grape_slug":"touriga-nacional","hood":"Gouvinhas, Cima Corgo"},{"slug":"quinta-do-tedo-armamar","name":"Quinta do Tedo","topic":"tasting-rooms","url":"/portugal/douro/tasting-rooms/quinta-do-tedo-armamar/","lat":41.1,"lng":-7.69,"score":4.5,"grape":"Touriga Nacional","grape_slug":"touriga-nacional","hood":"Armamar, Cima Corgo"},{"slug":"prova-porto","name":"Prova","topic":"wine-bars","url":"/portugal/douro/wine-bars/prova-porto/","lat":41.14251,"lng":-8.61513,"score":4.6,"hood":"Ribeira, Porto"},{"slug":"vinologia-porto","name":"Vinologia","topic":"wine-bars","url":"/portugal/douro/wine-bars/vinologia-porto/","lat":41.40734,"lng":-8.21984,"score":4.5,"hood":"Ribeira, Porto"},{"slug":"capela-incomum-porto","name":"Capela Incomum","topic":"wine-bars","url":"/portugal/douro/wine-bars/capela-incomum-porto/","lat":41.14881,"lng":-8.61783,"score":4.5,"hood":"Centro, Porto"},{"slug":"wine-quay-bar-porto","name":"Wine Quay Bar","topic":"wine-bars","url":"/portugal/douro/wine-bars/wine-quay-bar-porto/","lat":41.1407,"lng":-8.613,"score":4.4,"hood":"Ribeira, Porto"},{"slug":"arco-das-verdades-porto","name":"Arco das Verdades","topic":"wine-bars","url":"/portugal/douro/wine-bars/arco-das-verdades-porto/","lat":41.14156,"lng":-8.61124,"score":4.4,"hood":"Ribeira, Porto"},{"slug":"genuino-porto","name":"Genuíno","topic":"wine-bars","url":"/portugal/douro/wine-bars/genuino-porto/","lat":41.14951,"lng":-8.6219,"score":4.3,"hood":"Miguel Bombarda, Porto"},{"slug":"tapabento-porto","name":"Tapabento","topic":"wine-bars","url":"/portugal/douro/wine-bars/tapabento-porto/","lat":41.14595,"lng":-8.61004,"score":4.4,"hood":"São Bento, Porto"},{"slug":"castas-e-pratos-wine-bar-regua","name":"Castas e Pratos Wine Bar","topic":"wine-bars","url":"/portugal/douro/wine-bars/castas-e-pratos-wine-bar-regua/","lat":41.15725,"lng":-7.78252,"score":4.5,"hood":"Peso da Régua"},{"slug":"garrafeira-soares-sao-joao-porto","name":"Garrafeira Soares São João","topic":"wine-bars","url":"/portugal/douro/wine-bars/garrafeira-soares-sao-joao-porto/","lat":41.40734,"lng":-8.21984,"score":4.2,"hood":"Ribeira, Porto"},{"slug":"the-yeatman-restaurant-gaia","name":"The Yeatman Restaurant","topic":"wine-restaurants","url":"/portugal/douro/wine-restaurants/the-yeatman-restaurant-gaia/","lat":41.13462,"lng":-8.6142,"score":4.9,"hood":"Vila Nova de Gaia"},{"slug":"doc-rui-paula-folgosa","name":"DOC","topic":"wine-restaurants","url":"/portugal/douro/wine-restaurants/doc-rui-paula-folgosa/","lat":41.1,"lng":-7.69,"score":4.7,"hood":"Folgosa, Cima Corgo"},{"slug":"castas-e-pratos-regua","name":"Castas e Pratos","topic":"wine-restaurants","url":"/portugal/douro/wine-restaurants/castas-e-pratos-regua/","lat":41.15725,"lng":-7.78252,"score":4.6,"hood":"Peso da Régua"},{"slug":"antiqvvm-porto","name":"Antiqvvm","topic":"wine-restaurants","url":"/portugal/douro/wine-restaurants/antiqvvm-porto/","lat":41.14762,"lng":-8.62847,"score":4.8,"hood":"Massarelos, Porto"},{"slug":"conceitus-winery-restaurant-covas","name":"Conceitus Winery Restaurant","topic":"wine-restaurants","url":"/portugal/douro/wine-restaurants/conceitus-winery-restaurant-covas/","lat":41.16236,"lng":-7.59543,"score":4.6,"hood":"Covas do Douro, Cima Corgo"},{"slug":"bomfim-1896-pinhao","name":"Bomfim 1896","topic":"wine-restaurants","url":"/portugal/douro/wine-restaurants/bomfim-1896-pinhao/","lat":41.18853,"lng":-7.53912,"score":4.5,"hood":"Pinhão, Cima Corgo"},{"slug":"seixo-vasco-coelho-santos-valenca","name":"Seixo by Vasco Coelho Santos","topic":"wine-restaurants","url":"/portugal/douro/wine-restaurants/seixo-vasco-coelho-santos-valenca/","lat":41.15828,"lng":-7.55642,"score":4.5,"hood":"Valença do Douro, Cima Corgo"},{"slug":"cozinha-da-clara-quinta-de-la-rosa","name":"Cozinha da Clara","topic":"wine-restaurants","url":"/portugal/douro/wine-restaurants/cozinha-da-clara-quinta-de-la-rosa/","lat":41.18233,"lng":-7.55248,"score":4.4,"hood":"Pinhão, Cima Corgo"},{"slug":"cozinha-do-douro-six-senses-lamego","name":"Cozinha do Douro","topic":"wine-restaurants","url":"/portugal/douro/wine-restaurants/cozinha-do-douro-six-senses-lamego/","lat":41.14099,"lng":-7.82627,"score":4.5,"hood":"Samodães, Lamego, Baixo Corgo"},{"slug":"terracus-quinta-nova-covas","name":"Terraçu's","topic":"wine-restaurants","url":"/portugal/douro/wine-restaurants/terracus-quinta-nova-covas/","lat":41.16236,"lng":-7.59543,"score":4.3,"hood":"Covas do Douro, Cima Corgo"},{"slug":"garrafeira-do-carmo-porto","name":"Garrafeira do Carmo","topic":"wine-retailers","url":"/portugal/douro/wine-retailers/garrafeira-do-carmo-porto/","lat":41.14722,"lng":-8.61671,"score":4.6,"hood":"Centro, Porto"},{"slug":"garrafeira-nacional-flores-porto","name":"Garrafeira Nacional (Flores)","topic":"wine-retailers","url":"/portugal/douro/wine-retailers/garrafeira-nacional-flores-porto/","lat":41.14369,"lng":-8.61408,"score":4.4,"hood":"Centro, Porto"},{"slug":"porto-wine-house-gaia","name":"Porto Wine House","topic":"wine-retailers","url":"/portugal/douro/wine-retailers/porto-wine-house-gaia/","lat":41.13543,"lng":-8.61206,"score":4.2,"hood":"Vila Nova de Gaia"},{"slug":"garrafeira-soares-sao-joao-porto","name":"Garrafeira Soares (São João)","topic":"wine-retailers","url":"/portugal/douro/wine-retailers/garrafeira-soares-sao-joao-porto/","lat":41.40734,"lng":-8.21984,"score":4.2,"hood":"Ribeira, Porto"},{"slug":"gota-a-gota-wine-house-porto","name":"Gota a Gota Wine House","topic":"wine-retailers","url":"/portugal/douro/wine-retailers/gota-a-gota-wine-house-porto/","lat":41.15338,"lng":-8.61842,"score":4.3,"hood":"Cedofeita, Porto"},{"slug":"wow-the-wine-school-gaia","name":"The Wine School at WOW","topic":"wine-schools","url":"/portugal/douro/wine-schools/wow-the-wine-school-gaia/","lat":41.13474,"lng":-8.61435,"score":4.4,"hood":"Vila Nova de Gaia"},{"slug":"plansel-international-wine-school-douro","name":"Plansel International Wine School (Douro)","topic":"wine-schools","url":"/portugal/douro/wine-schools/plansel-international-wine-school-douro/","lat":41.14927,"lng":-7.86416,"score":4.4,"hood":"Penajóia, Lamego, Baixo Corgo"},{"slug":"quinta-do-vallado-tasting-classes-regua","name":"Quinta do Vallado Tastings and Cooking Classes","topic":"wine-schools","url":"/portugal/douro/wine-schools/quinta-do-vallado-tasting-classes-regua/","lat":41.17668,"lng":-7.74585,"score":4.3,"hood":"Vilarinho dos Freires, Peso da Régua, Baixo Corgo"},{"slug":"calem-tasting-experiences-gaia","name":"Cálem Tasting Experiences","topic":"wine-schools","url":"/portugal/douro/wine-schools/calem-tasting-experiences-gaia/","lat":41.13802,"lng":-8.61098,"score":4.2,"hood":"Vila Nova de Gaia"},{"slug":"living-tours-douro-wine-tour","name":"Living Tours Douro Valley Wine Tour","topic":"wine-tours","url":"/portugal/douro/wine-tours/living-tours-douro-wine-tour/","lat":41.17615,"lng":-8.46349,"score":4.5,"hood":"São Bento, Porto"},{"slug":"new-douro-tour-porto","name":"New Douro Tour","topic":"wine-tours","url":"/portugal/douro/wine-tours/new-douro-tour-porto/","lat":41.14898,"lng":-8.6112,"score":4.4,"hood":"Aliados, Porto"},{"slug":"cmtour-douro-valley","name":"CMTour Douro Valley Tours","topic":"wine-tours","url":"/portugal/douro/wine-tours/cmtour-douro-valley/","lat":41.2878,"lng":-7.74018,"score":4.3,"hood":"Porto"},{"slug":"dourovalley-tours-pinhao-boat","name":"Douro Valley Tours Pinhão Boat and Wine","topic":"wine-tours","url":"/portugal/douro/wine-tours/dourovalley-tours-pinhao-boat/","lat":41.19038,"lng":-7.54514,"score":4.3,"hood":"Pinhão, Cima Corgo"},{"slug":"wine-tourism-portugal-douro-tours","name":"Wine Tourism Portugal Douro Tours","topic":"wine-tours","url":"/portugal/douro/wine-tours/wine-tourism-portugal-douro-tours/","lat":41.2878,"lng":-7.74018,"score":4.3,"hood":"Porto"},{"slug":"porto-augustos-gaia","name":"Porto Augusto's","topic":"distilleries","url":"/portugal/douro/distilleries/porto-augustos-gaia/","lat":41.13663,"lng":-8.6138,"score":4.3,"classification":"Porto DOC (fortified wine)","hood":"Vila Nova de Gaia"},{"slug":"cockburns-lodge-gaia","name":"Cockburn's Port Lodge","topic":"distilleries","url":"/portugal/douro/distilleries/cockburns-lodge-gaia/","lat":41.13369,"lng":-8.6182,"score":4.4,"classification":"Porto DOC (fortified wine)","hood":"Vila Nova de Gaia"},{"slug":"burmester-cellars-gaia","name":"Burmester Cellars","topic":"distilleries","url":"/portugal/douro/distilleries/burmester-cellars-gaia/","lat":41.13907,"lng":-8.60908,"score":4.3,"classification":"Porto DOC (fortified wine)","hood":"Vila Nova de Gaia"},{"slug":"porto-gin-experience-invicta","name":"Porto Gin Experience (Invicta Gin School)","topic":"distilleries","url":"/portugal/douro/distilleries/porto-gin-experience-invicta/","lat":41.17615,"lng":-8.46349,"score":4.2,"classification":"Portuguese craft gin","hood":"São Bento, Porto"},{"slug":"museu-do-douro-regua","name":"Museu do Douro","topic":"wine-museums","url":"/portugal/douro/wine-museums/museu-do-douro-regua/","lat":41.16165,"lng":-7.79013,"score":4.5,"hood":"Peso da Régua"},{"slug":"wow-world-of-wine-gaia","name":"WOW (World of Wine)","topic":"wine-museums","url":"/portugal/douro/wine-museums/wow-world-of-wine-gaia/","lat":41.13474,"lng":-8.61435,"score":4.5,"hood":"Vila Nova de Gaia"},{"slug":"sandeman-museum-cellar-gaia","name":"Sandeman Museum-Cellar","topic":"wine-museums","url":"/portugal/douro/wine-museums/sandeman-museum-cellar-gaia/","lat":41.13755,"lng":-8.61246,"score":4.3,"hood":"Vila Nova de Gaia"},{"slug":"grahams-lodge-museum-gaia","name":"Graham's 1890 Lodge Museum","topic":"wine-museums","url":"/portugal/douro/wine-museums/grahams-lodge-museum-gaia/","lat":41.13438,"lng":-8.63139,"score":4.5,"hood":"Vila Nova de Gaia"},{"slug":"six-senses-douro-valley-lamego","name":"Six Senses Douro Valley","topic":"wine-hotels","url":"/portugal/douro/wine-hotels/six-senses-douro-valley-lamego/","lat":41.14099,"lng":-7.82627,"score":4.7,"hood":"Samodães, Lamego, Baixo Corgo"},{"slug":"the-yeatman-gaia","name":"The Yeatman","topic":"wine-hotels","url":"/portugal/douro/wine-hotels/the-yeatman-gaia/","lat":41.13462,"lng":-8.6142,"score":4.8,"hood":"Vila Nova de Gaia"},{"slug":"quinta-nova-winery-house-covas","name":"Quinta Nova Winery House","topic":"wine-hotels","url":"/portugal/douro/wine-hotels/quinta-nova-winery-house-covas/","lat":41.16236,"lng":-7.59543,"score":4.7,"hood":"Covas do Douro, Cima Corgo"},{"slug":"quinta-de-la-rosa-pinhao","name":"Quinta de la Rosa","topic":"wine-hotels","url":"/portugal/douro/wine-hotels/quinta-de-la-rosa-pinhao/","lat":41.18233,"lng":-7.55248,"score":4.5,"hood":"Pinhão, Cima Corgo"},{"slug":"the-vintage-house-pinhao","name":"The Vintage House - Douro","topic":"wine-hotels","url":"/portugal/douro/wine-hotels/the-vintage-house-pinhao/","lat":41.188,"lng":-7.546,"score":4.5,"hood":"Pinhão, Cima Corgo"},{"slug":"quinta-do-vallado-regua","name":"Quinta do Vallado Wine Hotel","topic":"wine-hotels","url":"/portugal/douro/wine-hotels/quinta-do-vallado-regua/","lat":41.17668,"lng":-7.74585,"score":4.6,"hood":"Vilarinho dos Freires, Peso da Régua, Baixo Corgo"},{"slug":"quinta-do-pego-valenca","name":"Hotel Rural Quinta do Pégo","topic":"wine-hotels","url":"/portugal/douro/wine-hotels/quinta-do-pego-valenca/","lat":41.15828,"lng":-7.55642,"score":4.4,"hood":"Valença do Douro, Cima Corgo"},{"slug":"casa-do-visconde-de-chanceleiros-pinhao","name":"Casa do Visconde de Chanceleiros","topic":"wine-hotels","url":"/portugal/douro/wine-hotels/casa-do-visconde-de-chanceleiros-pinhao/","lat":41.19,"lng":-7.53,"score":4.4,"hood":"Chanceleiros, Covas do Douro, Cima Corgo"},{"slug":"comboio-historico-douro-regua-tua","name":"Comboio Histórico do Douro (Historic Train)","topic":"wine-experiences","url":"/portugal/douro/wine-experiences/comboio-historico-douro-regua-tua/","lat":41.15857,"lng":-7.78363,"score":4.5,"hood":"Peso da Régua"},{"slug":"quinta-do-tedo-harvest-foot-treading","name":"Quinta do Tedo Harvest Foot-Treading","topic":"wine-experiences","url":"/portugal/douro/wine-experiences/quinta-do-tedo-harvest-foot-treading/","lat":41.1,"lng":-7.69,"score":4.6,"hood":"Armamar, Cima Corgo"},{"slug":"croft-quinta-da-roeda-grape-treading","name":"Croft Quinta da Roêda Grape Treading","topic":"wine-experiences","url":"/portugal/douro/wine-experiences/croft-quinta-da-roeda-grape-treading/","lat":41.1867,"lng":-7.52944,"score":4.5,"hood":"Pinhão, Cima Corgo"},{"slug":"quinta-da-pacheca-harvest-experience","name":"Quinta da Pacheca Harvest Experience","topic":"wine-experiences","url":"/portugal/douro/wine-experiences/quinta-da-pacheca-harvest-experience/","lat":41.12826,"lng":-7.80038,"score":4.5,"hood":"Cambres, Lamego, Baixo Corgo"},{"slug":"living-tours-douro-helicopter","name":"Douro Valley Helicopter Tour","topic":"wine-experiences","url":"/portugal/douro/wine-experiences/living-tours-douro-helicopter/","lat":41.17615,"lng":-8.46349,"score":4.4,"hood":"São Bento, Porto"},{"slug":"quinta-do-bomfim-vintage-tasting-experience","name":"Quinta do Bomfim Premium Vintage Experience","topic":"wine-experiences","url":"/portugal/douro/wine-experiences/quinta-do-bomfim-vintage-tasting-experience/","lat":41.18853,"lng":-7.53912,"score":4.6,"hood":"Pinhão, Cima Corgo"},{"slug":"taylors-port-blending-tasting-gaia","name":"Taylor's Port Tasting and Blending Flight","topic":"wine-experiences","url":"/portugal/douro/wine-experiences/taylors-port-blending-tasting-gaia/","lat":41.13434,"lng":-8.6144,"score":4.5,"hood":"Vila Nova de Gaia"},{"slug":"wine-and-soul","name":"Wine and Soul","topic":"hidden-gems","url":"/portugal/douro/hidden-gems/wine-and-soul/","lat":41.1985,"lng":-7.552,"score":4.7,"classification":"Douro DOC","grape":"Touriga Nacional","grape_slug":"touriga-nacional","hood":"Vale Mendiz, Cima Corgo"},{"slug":"quinta-do-poeira","name":"Quinta do Poeira (Jorge Moreira)","topic":"hidden-gems","url":"/portugal/douro/hidden-gems/quinta-do-poeira/","lat":41.195,"lng":-7.554,"score":4.5,"classification":"Douro DOC","grape":"Touriga Franca","grape_slug":"touriga-franca","hood":"Pinhao valley, Cima Corgo"},{"slug":"quinta-vale-dona-maria","name":"Quinta Vale Dona Maria","topic":"hidden-gems","url":"/portugal/douro/hidden-gems/quinta-vale-dona-maria/","lat":41.15778,"lng":-7.52584,"score":4.5,"classification":"Douro DOC","grape":"field blend old vines","grape_slug":"field-blend-old-vines","hood":"Rio Torto valley, Cima Corgo"},{"slug":"quinta-do-tedo","name":"Quinta do Tedo","topic":"hidden-gems","url":"/portugal/douro/hidden-gems/quinta-do-tedo/","lat":41.15169,"lng":-7.6797,"score":4.3,"classification":"Douro DOC","grape":"Touriga Nacional","grape_slug":"touriga-nacional","hood":"Folgosa, Baixo Corgo"},{"slug":"quinta-de-la-rosa","name":"Quinta de la Rosa","topic":"hidden-gems","url":"/portugal/douro/hidden-gems/quinta-de-la-rosa/","lat":41.22,"lng":-7.555,"score":4.4,"classification":"Douro DOC","grape":"Touriga Nacional","grape_slug":"touriga-nacional","hood":"Pinhao, Cima Corgo"},{"slug":"quinta-do-vale-meao","name":"Quinta do Vale Meao","topic":"hidden-gems","url":"/portugal/douro/hidden-gems/quinta-do-vale-meao/","lat":41.076,"lng":-7.145,"score":4.6,"classification":"Douro DOC","grape":"Touriga Nacional","grape_slug":"touriga-nacional","hood":"Douro Superior"},{"slug":"quinta-da-manoella","name":"Quinta da Manoella","topic":"hidden-gems","url":"/portugal/douro/hidden-gems/quinta-da-manoella/","lat":41.195,"lng":-7.554,"score":4.4,"classification":"Douro DOC","grape":"Touriga Nacional","grape_slug":"touriga-nacional","hood":"Pinhao valley, Cima Corgo"},{"slug":"niepoort-quinta-de-napoles","name":"Niepoort, Quinta de Napoles","topic":"hidden-gems","url":"/portugal/douro/hidden-gems/niepoort-quinta-de-napoles/","lat":41.155,"lng":-7.59,"score":4.5,"classification":"Douro DOC","grape":"field blend old vines","grape_slug":"field-blend-old-vines","hood":"Tedo valley, Cima Corgo"},{"slug":"niepoort-biodynamic","name":"Niepoort","topic":"dietary","diet":"biodynamic","url":"/portugal/douro/dietary/niepoort-biodynamic/","lat":41.155,"lng":-7.59,"score":4.5},{"slug":"quinta-do-orgal-organic","name":"Quinta do Orgal (Quinta do Vallado)","topic":"dietary","diet":"organic","url":"/portugal/douro/dietary/quinta-do-orgal-organic/","lat":41.02607,"lng":-7.06481,"score":4.3},{"slug":"quinta-do-tedo-organic","name":"Quinta do Tedo","topic":"dietary","diet":"organic","url":"/portugal/douro/dietary/quinta-do-tedo-organic/","lat":41.15169,"lng":-7.6797,"score":4.2},{"slug":"niepoort-organic","name":"Niepoort organic vineyards","topic":"dietary","diet":"organic","url":"/portugal/douro/dietary/niepoort-organic/","lat":41.155,"lng":-7.59,"score":4.4},{"slug":"folias-de-baco-uivo","name":"Folias de Baco (Uivo)","topic":"dietary","diet":"natural","url":"/portugal/douro/dietary/folias-de-baco-uivo/","lat":41.27641,"lng":-7.46922,"score":4.3},{"slug":"quinta-do-crasto-vegan","name":"Quinta do Crasto","topic":"dietary","diet":"vegan_winemaking","url":"/portugal/douro/dietary/quinta-do-crasto-vegan/","lat":41.18428,"lng":-7.63493,"score":4.2},{"slug":"niepoort-redoma-vegan","name":"Niepoort Redoma","topic":"dietary","diet":"vegan_winemaking","url":"/portugal/douro/dietary/niepoort-redoma-vegan/","lat":41.155,"lng":-7.59,"score":4.4},{"slug":"folias-de-baco-low-sulfite","name":"Folias de Baco low-sulfite wines","topic":"dietary","diet":"lowsulfite","url":"/portugal/douro/dietary/folias-de-baco-low-sulfite/","lat":41.27641,"lng":-7.46922,"score":4.2},{"slug":"niepoort-redoma-low-sulfite","name":"Niepoort Redoma low-sulfite reds","topic":"dietary","diet":"lowsulfite","url":"/portugal/douro/dietary/niepoort-redoma-low-sulfite/","lat":41.155,"lng":-7.59,"score":4.3}]}