{"city":{"slug":"jerez","name":"Jerez & Sherry","country":"Spain","center":[36.69051,-6.13723],"n":169},"pins":[{"slug":"gonzalez-byass","name":"González Byass","topic":"vineyards","url":"/spain/jerez/vineyards/gonzalez-byass/","lat":36.68318,"lng":-6.13622,"score":4.9,"classification":"DO Jerez-Xérès-Sherry","grape":"Palomino Fino","grape_slug":"palomino-fino","hood":"Jerez de la Frontera"},{"slug":"emilio-lustau","name":"Emilio Lustau","topic":"vineyards","url":"/spain/jerez/vineyards/emilio-lustau/","lat":36.68355,"lng":-6.13431,"score":4.7,"classification":"DO Jerez-Xérès-Sherry","grape":"Palomino Fino","grape_slug":"palomino-fino","hood":"Jerez de la Frontera"},{"slug":"bodegas-barbadillo","name":"Bodegas Barbadillo","topic":"vineyards","url":"/spain/jerez/vineyards/bodegas-barbadillo/","lat":36.79385,"lng":-6.33515,"score":4.7,"classification":"DO Manzanilla-Sanlúcar de Barrameda","grape":"Palomino Fino","grape_slug":"palomino-fino","hood":"Sanlúcar de Barrameda"},{"slug":"delgado-zuleta","name":"Delgado Zuleta","topic":"vineyards","url":"/spain/jerez/vineyards/delgado-zuleta/","lat":36.76933,"lng":-6.3576,"score":4.5,"classification":"DO Manzanilla-Sanlúcar de Barrameda","grape":"Palomino Fino","grape_slug":"palomino-fino","hood":"Sanlúcar de Barrameda"},{"slug":"bodegas-argueso","name":"Bodegas Herederos de Argüeso","topic":"vineyards","url":"/spain/jerez/vineyards/bodegas-argueso/","lat":36.78103,"lng":-6.35168,"score":4.5,"classification":"DO Manzanilla-Sanlúcar de Barrameda","grape":"Palomino Fino","grape_slug":"palomino-fino","hood":"Sanlúcar de Barrameda"},{"slug":"bodegas-fernandodecastilla","name":"Bodegas Fernando de Castilla","topic":"vineyards","url":"/spain/jerez/vineyards/bodegas-fernandodecastilla/","lat":36.68924,"lng":-6.1431,"score":4.5,"classification":"DO Jerez-Xérès-Sherry","grape":"Palomino Fino","grape_slug":"palomino-fino","hood":"Jerez de la Frontera"},{"slug":"bodegas-tradicion","name":"Bodegas Tradición","topic":"vineyards","url":"/spain/jerez/vineyards/bodegas-tradicion/","lat":36.68323,"lng":-6.13834,"score":4.7,"classification":"DO Jerez-Xérès-Sherry","grape":"Palomino Fino","grape_slug":"palomino-fino","hood":"Jerez de la Frontera"},{"slug":"equipo-navazos","name":"Equipo Navazos","topic":"vineyards","url":"/spain/jerez/vineyards/equipo-navazos/","lat":36.69051,"lng":-6.13489,"score":4.8,"classification":"DO Jerez-Xérès-Sherry","grape":"Palomino Fino","grape_slug":"palomino-fino","hood":"Jerez de la Frontera"},{"slug":"osborne","name":"Osborne","topic":"vineyards","url":"/spain/jerez/vineyards/osborne/","lat":36.59482,"lng":-6.22929,"score":4.5,"classification":"DO Jerez-Xérès-Sherry","grape":"Palomino Fino","grape_slug":"palomino-fino","hood":"El Puerto de Santa María"},{"slug":"bodegas-gutierrez-colosia","name":"Bodegas Gutiérrez Colosía","topic":"vineyards","url":"/spain/jerez/vineyards/bodegas-gutierrez-colosia/","lat":36.5924,"lng":-6.22877,"score":4.3,"classification":"DO Jerez-Xérès-Sherry","grape":"Palomino Fino","grape_slug":"palomino-fino","hood":"El Puerto de Santa María"},{"slug":"bodegas-hidalgo-la-gitana","name":"Bodegas Hidalgo La Gitana","topic":"vineyards","url":"/spain/jerez/vineyards/bodegas-hidalgo-la-gitana/","lat":36.77658,"lng":-6.35996,"score":4.6,"classification":"DO Manzanilla-Sanlúcar de Barrameda","grape":"Palomino Fino","grape_slug":"palomino-fino","hood":"Sanlúcar de Barrameda"},{"slug":"sanchez-romate","name":"Sánchez Romate","topic":"vineyards","url":"/spain/jerez/vineyards/sanchez-romate/","lat":36.69015,"lng":-6.14245,"score":4.4,"classification":"DO Jerez-Xérès-Sherry","grape":"Palomino Fino","grape_slug":"palomino-fino","hood":"Jerez de la Frontera"},{"slug":"williams-humbert","name":"Williams & Humbert","topic":"vineyards","url":"/spain/jerez/vineyards/williams-humbert/","lat":36.68485,"lng":-6.14802,"score":4.3,"classification":"DO Jerez-Xérès-Sherry","grape":"Palomino Fino","grape_slug":"palomino-fino","hood":"Jerez de la Frontera"},{"slug":"real-tesoro-valdespino","name":"Bodegas Real Tesoro y Valdespino","topic":"vineyards","url":"/spain/jerez/vineyards/real-tesoro-valdespino/","lat":36.69089,"lng":-6.1387,"score":4.8,"classification":"DO Jerez-Xérès-Sherry","grape":"Palomino Fino","grape_slug":"palomino-fino","hood":"Jerez de la Frontera"},{"slug":"pedro-romero","name":"Pedro Romero","topic":"vineyards","url":"/spain/jerez/vineyards/pedro-romero/","lat":36.78146,"lng":-6.35227,"score":4.3,"classification":"DO Manzanilla-Sanlúcar de Barrameda","grape":"Palomino Fino","grape_slug":"palomino-fino","hood":"Sanlúcar de Barrameda"},{"slug":"cesar-florido","name":"Bodegas César Florido","topic":"vineyards","url":"/spain/jerez/vineyards/cesar-florido/","lat":36.73986,"lng":-6.43361,"score":4.2,"classification":"DO Jerez-Xérès-Sherry","grape":"Moscatel de Alejandría","grape_slug":"moscatel-de-alejandria","hood":"Chipiona"},{"slug":"rey-fernando-de-castilla","name":"Bodegas Rey Fernando de Castilla","topic":"vineyards","url":"/spain/jerez/vineyards/rey-fernando-de-castilla/","lat":36.68924,"lng":-6.1431,"score":4.2,"classification":"DO Jerez-Xérès-Sherry","grape":"Palomino Fino","grape_slug":"palomino-fino","hood":"Jerez de la Frontera"},{"slug":"bodegas-yuste","name":"Bodegas Yuste","topic":"vineyards","url":"/spain/jerez/vineyards/bodegas-yuste/","lat":36.78233,"lng":-6.35292,"score":4.0,"classification":"DO Manzanilla-Sanlúcar de Barrameda","grape":"Palomino Fino","grape_slug":"palomino-fino","hood":"Sanlúcar de Barrameda"},{"slug":"bodegas-dios-baco","name":"Bodegas Dios Baco","topic":"vineyards","url":"/spain/jerez/vineyards/bodegas-dios-baco/","lat":36.68114,"lng":-6.13158,"score":4.2,"classification":"DO Jerez-Xérès-Sherry","grape":"Palomino Fino","grape_slug":"palomino-fino","hood":"Jerez de la Frontera"},{"slug":"la-ina-pedro-domecq","name":"Pedro Domecq (Beam Suntory)","topic":"vineyards","url":"/spain/jerez/vineyards/la-ina-pedro-domecq/","lat":36.68303,"lng":-6.14343,"score":4.3,"classification":"DO Jerez-Xérès-Sherry","grape":"Palomino Fino","grape_slug":"palomino-fino","hood":"Jerez de la Frontera"},{"slug":"bodegas-paez-morilla","name":"Bodegas Páez Morilla","topic":"vineyards","url":"/spain/jerez/vineyards/bodegas-paez-morilla/","lat":36.68115,"lng":-6.13723,"score":4.0,"classification":"DO Jerez-Xérès-Sherry","grape":"Palomino Fino","grape_slug":"palomino-fino","hood":"Jerez de la Frontera"},{"slug":"caballero","name":"Bodegas Caballero","topic":"vineyards","url":"/spain/jerez/vineyards/caballero/","lat":36.596,"lng":-6.22944,"score":4.1,"classification":"DO Jerez-Xérès-Sherry","grape":"Palomino Fino","grape_slug":"palomino-fino","hood":"El Puerto de Santa María"},{"slug":"bodega-el-maestro-sierra","name":"El Maestro Sierra","topic":"vineyards","url":"/spain/jerez/vineyards/bodega-el-maestro-sierra/","lat":36.68333,"lng":-6.13876,"score":4.8,"classification":"DO Jerez-Xérès-Sherry","grape":"Palomino Fino","grape_slug":"palomino-fino","hood":"Jerez de la Frontera"},{"slug":"bodegas-sanchez-ayala","name":"Bodegas Sánchez Ayala","topic":"vineyards","url":"/spain/jerez/vineyards/bodegas-sanchez-ayala/","lat":36.77418,"lng":-6.35422,"score":4.1,"classification":"DO Manzanilla-Sanlúcar de Barrameda","grape":"Palomino Fino","grape_slug":"palomino-fino","hood":"Sanlúcar de Barrameda"},{"slug":"diez-merito","name":"Bodegas Díez-Mérito","topic":"vineyards","url":"/spain/jerez/vineyards/diez-merito/","lat":36.69027,"lng":-6.14178,"score":4.2,"classification":"DO Jerez-Xérès-Sherry","grape":"Palomino Fino","grape_slug":"palomino-fino","hood":"Jerez de la Frontera"},{"slug":"bodegas-obregon","name":"Bodegas Obregón","topic":"vineyards","url":"/spain/jerez/vineyards/bodegas-obregon/","lat":36.59415,"lng":-6.23029,"score":4.0,"classification":"DO Jerez-Xérès-Sherry","grape":"Palomino Fino","grape_slug":"palomino-fino","hood":"El Puerto de Santa María"},{"slug":"lacave-morales","name":"La Cave Morales","topic":"vineyards","url":"/spain/jerez/vineyards/lacave-morales/","lat":36.6828,"lng":-6.13634,"score":3.9,"classification":"DO Jerez-Xérès-Sherry","grape":"Palomino Fino","grape_slug":"palomino-fino","hood":"Jerez de la Frontera"},{"slug":"bodegas-vergara","name":"Bodegas Vergara","topic":"vineyards","url":"/spain/jerez/vineyards/bodegas-vergara/","lat":36.76555,"lng":-6.35959,"score":3.9,"classification":"DO Manzanilla-Sanlúcar de Barrameda","grape":"Palomino Fino","grape_slug":"palomino-fino","hood":"Sanlúcar de Barrameda"},{"slug":"herederos-argueso","name":"Herederos de Argüeso","topic":"vineyards","url":"/spain/jerez/vineyards/herederos-argueso/","lat":36.78103,"lng":-6.35168,"score":4.4,"classification":"DO Manzanilla-Sanlúcar de Barrameda","grape":"Palomino Fino","grape_slug":"palomino-fino","hood":"Sanlúcar de Barrameda"},{"slug":"bodegas-hidalgo-la-panesa","name":"Vinicola Hidalgo","topic":"vineyards","url":"/spain/jerez/vineyards/bodegas-hidalgo-la-panesa/","lat":36.77658,"lng":-6.35996,"score":4.3,"classification":"DO Manzanilla-Sanlúcar de Barrameda","grape":"Palomino Fino","grape_slug":"palomino-fino","hood":"Sanlúcar de Barrameda"},{"slug":"urium","name":"Bodegas Urium","topic":"vineyards","url":"/spain/jerez/vineyards/urium/","lat":36.68195,"lng":-6.13881,"score":4.1,"classification":"DO Jerez-Xérès-Sherry","grape":"Palomino Fino","grape_slug":"palomino-fino","hood":"Jerez de la Frontera"},{"slug":"bodegas-faustino-gonzalez","name":"Bodegas Faustino González","topic":"vineyards","url":"/spain/jerez/vineyards/bodegas-faustino-gonzalez/","lat":36.68906,"lng":-6.11903,"score":4.0,"classification":"DO Jerez-Xérès-Sherry","grape":"Palomino Fino","grape_slug":"palomino-fino","hood":"Jerez de la Frontera"},{"slug":"bodegas-garcia-jarana","name":"Bodegas García Jarana","topic":"vineyards","url":"/spain/jerez/vineyards/bodegas-garcia-jarana/","lat":36.77688,"lng":-6.35204,"score":3.9,"classification":"DO Manzanilla-Sanlúcar de Barrameda","grape":"Palomino Fino","grape_slug":"palomino-fino","hood":"Sanlúcar de Barrameda"},{"slug":"gonzalez-obregon","name":"González Obregón","topic":"vineyards","url":"/spain/jerez/vineyards/gonzalez-obregon/","lat":36.68628,"lng":-6.1376,"score":3.9,"classification":"DO Jerez-Xérès-Sherry","grape":"Palomino Fino","grape_slug":"palomino-fino","hood":"Jerez de la Frontera"},{"slug":"jose-de-soto","name":"Bodegas José de Soto","topic":"vineyards","url":"/spain/jerez/vineyards/jose-de-soto/","lat":36.68894,"lng":-6.14024,"score":4.1,"classification":"DO Jerez-Xérès-Sherry","grape":"Palomino Fino","grape_slug":"palomino-fino","hood":"Jerez de la Frontera"},{"slug":"bodegas-robles","name":"Bodegas Robles","topic":"vineyards","url":"/spain/jerez/vineyards/bodegas-robles/","lat":37.5942,"lng":-4.63276,"score":4.3,"classification":"DO Jerez-Xérès-Sherry","grape":"Pedro Ximénez","grape_slug":"pedro-ximenez","hood":"Jerez de la Frontera"},{"slug":"grupo-estevez","name":"Grupo Estévez (Real Tesoro / Marqués del Real Tesoro)","topic":"vineyards","url":"/spain/jerez/vineyards/grupo-estevez/","lat":36.69089,"lng":-6.1387,"score":4.5,"classification":"DO Jerez-Xérès-Sherry","grape":"Palomino Fino","grape_slug":"palomino-fino","hood":"Jerez de la Frontera"},{"slug":"bodegas-bay-alba","name":"Bodegas Bay-Alba","topic":"vineyards","url":"/spain/jerez/vineyards/bodegas-bay-alba/","lat":36.68906,"lng":-6.11903,"score":3.9,"classification":"DO Jerez-Xérès-Sherry","grape":"Palomino Fino","grape_slug":"palomino-fino","hood":"Jerez de la Frontera"},{"slug":"bodega-croft","name":"Croft Sherry","topic":"vineyards","url":"/spain/jerez/vineyards/bodega-croft/","lat":36.71831,"lng":-6.155,"score":4.2,"classification":"DO Jerez-Xérès-Sherry","grape":"Palomino Fino","grape_slug":"palomino-fino","hood":"Jerez de la Frontera"},{"slug":"palomino-vergara","name":"Palomino & Vergara","topic":"vineyards","url":"/spain/jerez/vineyards/palomino-vergara/","lat":36.68318,"lng":-6.13622,"score":4.1,"classification":"DO Jerez-Xérès-Sherry","grape":"Palomino Fino","grape_slug":"palomino-fino","hood":"Jerez de la Frontera"},{"slug":"bodegas-de-la-riva","name":"Bodegas de la Riva","topic":"vineyards","url":"/spain/jerez/vineyards/bodegas-de-la-riva/","lat":36.68906,"lng":-6.11903,"score":4.1,"classification":"DO Jerez-Xérès-Sherry","grape":"Palomino Fino","grape_slug":"palomino-fino","hood":"Jerez de la Frontera"},{"slug":"bodegas-garcia-de-velasco","name":"Bodegas García de Velasco","topic":"vineyards","url":"/spain/jerez/vineyards/bodegas-garcia-de-velasco/","lat":36.68611,"lng":-6.13751,"score":3.9,"classification":"DO Jerez-Xérès-Sherry","grape":"Palomino Fino","grape_slug":"palomino-fino","hood":"Jerez de la Frontera"},{"slug":"bodegas-reyes-gutierrez","name":"Bodegas Reyes Gutiérrez","topic":"vineyards","url":"/spain/jerez/vineyards/bodegas-reyes-gutierrez/","lat":36.77688,"lng":-6.35204,"score":3.9,"classification":"DO Manzanilla-Sanlúcar de Barrameda","grape":"Palomino Fino","grape_slug":"palomino-fino","hood":"Sanlúcar de Barrameda"},{"slug":"bodegas-medina","name":"Bodegas Medina","topic":"vineyards","url":"/spain/jerez/vineyards/bodegas-medina/","lat":36.78239,"lng":-6.35298,"score":4.0,"classification":"DO Manzanilla-Sanlúcar de Barrameda","grape":"Palomino Fino","grape_slug":"palomino-fino","hood":"Sanlúcar de Barrameda"},{"slug":"miguel-martin","name":"Miguel Martín","topic":"vineyards","url":"/spain/jerez/vineyards/miguel-martin/","lat":36.68136,"lng":-6.13657,"score":3.9,"classification":"DO Jerez-Xérès-Sherry","grape":"Palomino Fino","grape_slug":"palomino-fino","hood":"Jerez de la Frontera"},{"slug":"sandeman-jerez","name":"Sandeman Jerez","topic":"vineyards","url":"/spain/jerez/vineyards/sandeman-jerez/","lat":36.69089,"lng":-6.1387,"score":4.1,"classification":"DO Jerez-Xérès-Sherry","grape":"Palomino Fino","grape_slug":"palomino-fino","hood":"Jerez de la Frontera"},{"slug":"bodegas-la-cigarrera","name":"Bodegas La Cigarrera","topic":"vineyards","url":"/spain/jerez/vineyards/bodegas-la-cigarrera/","lat":36.77688,"lng":-6.35204,"score":4.0,"classification":"DO Manzanilla-Sanlúcar de Barrameda","grape":"Palomino Fino","grape_slug":"palomino-fino","hood":"Sanlúcar de Barrameda"},{"slug":"gonzalez-byass-tio-pepe-tasting","name":"Gonzalez Byass Tio Pepe Tasting Room","topic":"tasting-rooms","url":"/spain/jerez/tasting-rooms/gonzalez-byass-tio-pepe-tasting/","lat":36.69051,"lng":-6.13489,"score":4.8,"grape":"Palomino Fino","grape_slug":"palomino-fino","hood":"Jerez centro"},{"slug":"lustau-almacenista-tasting","name":"Bodegas Lustau Tasting Room","topic":"tasting-rooms","url":"/spain/jerez/tasting-rooms/lustau-almacenista-tasting/","lat":36.69051,"lng":-6.13489,"score":4.7,"grape":"Palomino Fino","grape_slug":"palomino-fino","hood":"Santiago, Jerez"},{"slug":"bodegas-tradicion-tasting","name":"Bodegas Tradicion Tasting Room","topic":"tasting-rooms","url":"/spain/jerez/tasting-rooms/bodegas-tradicion-tasting/","lat":36.69051,"lng":-6.13489,"score":4.9,"grape":"Palomino Fino","grape_slug":"palomino-fino","hood":"Jerez centro"},{"slug":"williams-humbert-tasting","name":"Williams and Humbert Tasting Room","topic":"tasting-rooms","url":"/spain/jerez/tasting-rooms/williams-humbert-tasting/","lat":36.65863,"lng":-6.1557,"score":4.5,"grape":"Palomino Fino","grape_slug":"palomino-fino","hood":"Jerez norte"},{"slug":"hidalgo-la-gitana-tasting-sanlucar","name":"Hidalgo La Gitana Tasting Room","topic":"tasting-rooms","url":"/spain/jerez/tasting-rooms/hidalgo-la-gitana-tasting-sanlucar/","lat":36.65863,"lng":-6.1557,"score":4.7,"grape":"Palomino Fino","grape_slug":"palomino-fino","hood":"Sanlucar de Barrameda centro"},{"slug":"barbadillo-tasting-sanlucar","name":"Bodegas Barbadillo Tasting Room","topic":"tasting-rooms","url":"/spain/jerez/tasting-rooms/barbadillo-tasting-sanlucar/","lat":36.65863,"lng":-6.1557,"score":4.5,"grape":"Palomino Fino","grape_slug":"palomino-fino","hood":"Sanlucar de Barrameda centro"},{"slug":"valdespino-tasting-jerez","name":"Valdespino Tasting Room","topic":"tasting-rooms","url":"/spain/jerez/tasting-rooms/valdespino-tasting-jerez/","lat":36.69051,"lng":-6.13489,"score":4.7,"grape":"Palomino Fino","grape_slug":"palomino-fino","hood":"Jerez centro"},{"slug":"fernando-de-castilla-tasting","name":"Bodegas Fernando de Castilla Tasting Room","topic":"tasting-rooms","url":"/spain/jerez/tasting-rooms/fernando-de-castilla-tasting/","lat":36.69051,"lng":-6.13489,"score":4.6,"grape":"Palomino Fino","grape_slug":"palomino-fino","hood":"Jerez centro"},{"slug":"sandeman-tasting-jerez","name":"Bodegas Sandeman Tasting Room","topic":"tasting-rooms","url":"/spain/jerez/tasting-rooms/sandeman-tasting-jerez/","lat":36.69051,"lng":-6.13489,"score":4.3,"grape":"Palomino Fino","grape_slug":"palomino-fino","hood":"Jerez centro"},{"slug":"maestro-sierra-tasting","name":"Maestro Sierra Tasting Room","topic":"tasting-rooms","url":"/spain/jerez/tasting-rooms/maestro-sierra-tasting/","lat":36.69051,"lng":-6.13489,"score":4.8,"grape":"Palomino Fino","grape_slug":"palomino-fino","hood":"Jerez centro"},{"slug":"sanchez-romate-tasting","name":"Sanchez Romate Tasting Room","topic":"tasting-rooms","url":"/spain/jerez/tasting-rooms/sanchez-romate-tasting/","lat":36.69051,"lng":-6.13489,"score":4.6,"grape":"Palomino Fino","grape_slug":"palomino-fino","hood":"Jerez centro"},{"slug":"domecq-fundador-tasting","name":"Fundador Bodega Tasting Room","topic":"tasting-rooms","url":"/spain/jerez/tasting-rooms/domecq-fundador-tasting/","lat":36.69051,"lng":-6.13489,"score":4.4,"grape":"Palomino Fino","grape_slug":"palomino-fino","hood":"Jerez centro"},{"slug":"osborne-tasting-el-puerto","name":"Osborne Bodega Tasting Room","topic":"tasting-rooms","url":"/spain/jerez/tasting-rooms/osborne-tasting-el-puerto/","lat":36.65863,"lng":-6.1557,"score":4.5,"grape":"Palomino Fino","grape_slug":"palomino-fino","hood":"El Puerto de Santa Maria"},{"slug":"real-tesoro-tasting-jerez","name":"Bodegas Real Tesoro Tasting Room","topic":"tasting-rooms","url":"/spain/jerez/tasting-rooms/real-tesoro-tasting-jerez/","lat":36.69051,"lng":-6.13489,"score":4.2,"grape":"Palomino Fino","grape_slug":"palomino-fino","hood":"Jerez centro"},{"slug":"la-guita-tasting-sanlucar","name":"La Guita Manzanilla Tasting","topic":"tasting-rooms","url":"/spain/jerez/tasting-rooms/la-guita-tasting-sanlucar/","lat":36.65863,"lng":-6.1557,"score":4.4,"grape":"Palomino Fino","grape_slug":"palomino-fino","hood":"Sanlucar de Barrameda centro"},{"slug":"tabanco-el-pasaje-jerez","name":"Tabanco El Pasaje","topic":"wine-bars","url":"/spain/jerez/wine-bars/tabanco-el-pasaje-jerez/","lat":36.69051,"lng":-6.13489,"score":4.7,"hood":"Jerez centro"},{"slug":"tabanco-san-pablo-jerez","name":"Tabanco San Pablo","topic":"wine-bars","url":"/spain/jerez/wine-bars/tabanco-san-pablo-jerez/","lat":36.69051,"lng":-6.13489,"score":4.5,"hood":"Jerez centro"},{"slug":"tabanco-las-banderillas-jerez","name":"Tabanco Las Banderillas","topic":"wine-bars","url":"/spain/jerez/wine-bars/tabanco-las-banderillas-jerez/","lat":36.69051,"lng":-6.13489,"score":4.6,"hood":"Jerez centro"},{"slug":"tabanco-plateros-jerez","name":"Tabanco Plateros","topic":"wine-bars","url":"/spain/jerez/wine-bars/tabanco-plateros-jerez/","lat":36.69051,"lng":-6.13489,"score":4.4,"hood":"Jerez centro"},{"slug":"tabanco-guitarron-san-pedro-jerez","name":"Tabanco El Guitarron de San Pedro","topic":"wine-bars","url":"/spain/jerez/wine-bars/tabanco-guitarron-san-pedro-jerez/","lat":36.69051,"lng":-6.13489,"score":4.5,"hood":"Jerez centro"},{"slug":"bar-juanito-jerez","name":"Bar Juanito","topic":"wine-bars","url":"/spain/jerez/wine-bars/bar-juanito-jerez/","lat":36.69051,"lng":-6.13489,"score":4.6,"hood":"Jerez centro"},{"slug":"casa-balbino-sanlucar","name":"Casa Balbino","topic":"wine-bars","url":"/spain/jerez/wine-bars/casa-balbino-sanlucar/","lat":36.65863,"lng":-6.1557,"score":4.7,"hood":"Sanlucar de Barrameda centro"},{"slug":"taberna-der-guerrita-sanlucar","name":"Taberna der Guerrita","topic":"wine-bars","url":"/spain/jerez/wine-bars/taberna-der-guerrita-sanlucar/","lat":36.65863,"lng":-6.1557,"score":4.6,"hood":"Sanlucar de Barrameda centro"},{"slug":"la-carbonaria-jerez","name":"La Carbonaria","topic":"wine-bars","url":"/spain/jerez/wine-bars/la-carbonaria-jerez/","lat":36.69051,"lng":-6.13489,"score":4.5,"hood":"Jerez centro"},{"slug":"bar-la-moderna-jerez","name":"Bar La Moderna","topic":"wine-bars","url":"/spain/jerez/wine-bars/bar-la-moderna-jerez/","lat":36.69051,"lng":-6.13489,"score":4.3,"hood":"Jerez centro"},{"slug":"al-andalus-bar-jerez","name":"Al Andalus Tapas Bar","topic":"wine-bars","url":"/spain/jerez/wine-bars/al-andalus-bar-jerez/","lat":36.69051,"lng":-6.13489,"score":4.2,"hood":"Jerez centro"},{"slug":"pepe-hillo-el-puerto","name":"Pepe Hillo","topic":"wine-bars","url":"/spain/jerez/wine-bars/pepe-hillo-el-puerto/","lat":36.65863,"lng":-6.1557,"score":4.3,"hood":"El Puerto de Santa Maria"},{"slug":"la-venencia-style-jerez","name":"Enoteca Jerez","topic":"wine-bars","url":"/spain/jerez/wine-bars/la-venencia-style-jerez/","lat":36.69051,"lng":-6.13489,"score":4.4,"hood":"Jerez centro"},{"slug":"tabanco-la-constancia-jerez","name":"Tabanco La Constancia","topic":"wine-bars","url":"/spain/jerez/wine-bars/tabanco-la-constancia-jerez/","lat":36.69051,"lng":-6.13489,"score":4.5,"hood":"Santiago, Jerez"},{"slug":"bodeguita-el-gallo-azul-jerez","name":"Bodeguita El Gallo Azul","topic":"wine-bars","url":"/spain/jerez/wine-bars/bodeguita-el-gallo-azul-jerez/","lat":36.69051,"lng":-6.13489,"score":4.3,"hood":"Jerez centro"},{"slug":"aponiente-el-puerto","name":"Aponiente","topic":"wine-restaurants","url":"/spain/jerez/wine-restaurants/aponiente-el-puerto/","lat":36.65863,"lng":-6.1557,"score":4.9,"hood":"El Puerto de Santa Maria"},{"slug":"lu-cocina-alma-jerez","name":"LU Cocina y Alma","topic":"wine-restaurants","url":"/spain/jerez/wine-restaurants/lu-cocina-alma-jerez/","lat":36.69051,"lng":-6.13489,"score":4.8,"hood":"Jerez centro"},{"slug":"mantua-jerez","name":"Mantua","topic":"wine-restaurants","url":"/spain/jerez/wine-restaurants/mantua-jerez/","lat":36.69051,"lng":-6.13489,"score":4.7,"hood":"Jerez centro"},{"slug":"casa-bigote-sanlucar","name":"Casa Bigote","topic":"wine-restaurants","url":"/spain/jerez/wine-restaurants/casa-bigote-sanlucar/","lat":36.65863,"lng":-6.1557,"score":4.6,"hood":"Bajo de Guia, Sanlucar"},{"slug":"albornoz-jerez","name":"Albornoz","topic":"wine-restaurants","url":"/spain/jerez/wine-restaurants/albornoz-jerez/","lat":36.69051,"lng":-6.13489,"score":4.4,"hood":"Jerez centro"},{"slug":"el-bosque-jerez","name":"El Bosque","topic":"wine-restaurants","url":"/spain/jerez/wine-restaurants/el-bosque-jerez/","lat":36.69287,"lng":-6.13432,"score":4.3,"hood":"Jerez norte"},{"slug":"venta-el-cordobes-jerez","name":"Venta El Cordobes","topic":"wine-restaurants","url":"/spain/jerez/wine-restaurants/venta-el-cordobes-jerez/","lat":36.69051,"lng":-6.13489,"score":4.2,"hood":"Jerez centro"},{"slug":"el-lagareto-el-puerto","name":"El Lagareto","topic":"wine-restaurants","url":"/spain/jerez/wine-restaurants/el-lagareto-el-puerto/","lat":36.65863,"lng":-6.1557,"score":4.3,"hood":"El Puerto de Santa Maria"},{"slug":"restaurante-tendido-6-jerez","name":"Restaurante Tendido 6","topic":"wine-restaurants","url":"/spain/jerez/wine-restaurants/restaurante-tendido-6-jerez/","lat":36.69051,"lng":-6.13489,"score":4.4,"hood":"Jerez centro"},{"slug":"el-espejo-jerez","name":"El Espejo","topic":"wine-restaurants","url":"/spain/jerez/wine-restaurants/el-espejo-jerez/","lat":36.69051,"lng":-6.13489,"score":4.4,"hood":"Jerez centro"},{"slug":"taberna-almocaden-jerez","name":"Taberna Almocaden","topic":"wine-restaurants","url":"/spain/jerez/wine-restaurants/taberna-almocaden-jerez/","lat":36.69051,"lng":-6.13489,"score":4.3,"hood":"Jerez centro"},{"slug":"albalana-jerez","name":"Albalana","topic":"wine-restaurants","url":"/spain/jerez/wine-restaurants/albalana-jerez/","lat":36.69051,"lng":-6.13489,"score":4.4,"hood":"Jerez centro"},{"slug":"enoteca-el-market-jerez","name":"El Market Vinos y Vinagretas","topic":"wine-retailers","url":"/spain/jerez/wine-retailers/enoteca-el-market-jerez/","lat":36.69051,"lng":-6.13489,"score":4.6,"hood":"Jerez centro"},{"slug":"bodegas-cooperativa-jerez","name":"Cooperativa Agricola Vitivinicola San Isidro","topic":"wine-retailers","url":"/spain/jerez/wine-retailers/bodegas-cooperativa-jerez/","lat":36.69051,"lng":-6.13489,"score":4.1,"hood":"Jerez sur"},{"slug":"vinos-del-marco-sanlucar","name":"Vinos del Marco","topic":"wine-retailers","url":"/spain/jerez/wine-retailers/vinos-del-marco-sanlucar/","lat":36.65863,"lng":-6.1557,"score":4.5,"hood":"Sanlucar de Barrameda centro"},{"slug":"lustau-outlet-shop-jerez","name":"Lustau Bodega Shop","topic":"wine-retailers","url":"/spain/jerez/wine-retailers/lustau-outlet-shop-jerez/","lat":36.69051,"lng":-6.13489,"score":4.5,"hood":"Santiago, Jerez"},{"slug":"la-cava-del-vino-jerez","name":"La Cava del Vino","topic":"wine-retailers","url":"/spain/jerez/wine-retailers/la-cava-del-vino-jerez/","lat":36.69051,"lng":-6.13489,"score":4.4,"hood":"Jerez centro"},{"slug":"vino-y-manzanilla-el-puerto","name":"Vino y Manzanilla","topic":"wine-retailers","url":"/spain/jerez/wine-retailers/vino-y-manzanilla-el-puerto/","lat":36.65863,"lng":-6.1557,"score":4.2,"hood":"El Puerto de Santa Maria centro"},{"slug":"bodega-gonzalez-byass-tienda","name":"Gonzalez Byass Bodega Shop","topic":"wine-retailers","url":"/spain/jerez/wine-retailers/bodega-gonzalez-byass-tienda/","lat":36.69051,"lng":-6.13489,"score":4.6,"hood":"Jerez centro"},{"slug":"taberna-del-guerrero-sanlucar","name":"Taberna y Vinos del Guerrero","topic":"wine-retailers","url":"/spain/jerez/wine-retailers/taberna-del-guerrero-sanlucar/","lat":36.65863,"lng":-6.1557,"score":4.4,"hood":"Sanlucar de Barrameda centro"},{"slug":"tio-pepe-online-shop-jerez","name":"El Rincón del Sherry","topic":"wine-retailers","url":"/spain/jerez/wine-retailers/tio-pepe-online-shop-jerez/","lat":36.69051,"lng":-6.13489,"score":4.5,"hood":"Jerez centro"},{"slug":"vinoteca-san-francisco-jerez","name":"Vinoteca San Francisco","topic":"wine-retailers","url":"/spain/jerez/wine-retailers/vinoteca-san-francisco-jerez/","lat":36.69051,"lng":-6.13489,"score":4.3,"hood":"Jerez centro"},{"slug":"escuela-capataces-sanlucar","name":"Escuela de Capataces de Sanlucar","topic":"wine-schools","url":"/spain/jerez/wine-schools/escuela-capataces-sanlucar/","lat":36.65863,"lng":-6.1557,"score":4.7,"hood":"Sanlucar de Barrameda centro"},{"slug":"wset-cadiz-andalucia","name":"WSET Andalucia at AIS Cadiz","topic":"wine-schools","url":"/spain/jerez/wine-schools/wset-cadiz-andalucia/","lat":36.65863,"lng":-6.1557,"score":4.5,"hood":"Cadiz ciudad"},{"slug":"sherry-educators-course-consejo","name":"Sherry Educator Certification Programme","topic":"wine-schools","url":"/spain/jerez/wine-schools/sherry-educators-course-consejo/","lat":36.69051,"lng":-6.13489,"score":4.8,"hood":"Jerez centro"},{"slug":"maestro-sierra-private-workshop","name":"Maestro Sierra Solera Workshops","topic":"wine-schools","url":"/spain/jerez/wine-schools/maestro-sierra-private-workshop/","lat":36.69051,"lng":-6.13489,"score":4.7,"hood":"Jerez centro"},{"slug":"lustau-sherry-academy","name":"Lustau Sherry Academy","topic":"wine-schools","url":"/spain/jerez/wine-schools/lustau-sherry-academy/","lat":36.69051,"lng":-6.13489,"score":4.6,"hood":"Santiago, Jerez"},{"slug":"gonzalez-byass-sherry-school","name":"Gonzalez Byass Tio Pepe Sherry School","topic":"wine-schools","url":"/spain/jerez/wine-schools/gonzalez-byass-sherry-school/","lat":36.69051,"lng":-6.13489,"score":4.7,"hood":"Jerez centro"},{"slug":"gonzalez-byass-tio-pepe-tour","name":"Gonzalez Byass Tio Pepe Historic Bodega Tour","topic":"wine-tours","url":"/spain/jerez/wine-tours/gonzalez-byass-tio-pepe-tour/","lat":36.69051,"lng":-6.13489,"score":4.8,"hood":"Jerez centro"},{"slug":"bodegas-tradicion-art-sherry-tour","name":"Bodegas Tradicion: Sherry and Pinacoteca Tour","topic":"wine-tours","url":"/spain/jerez/wine-tours/bodegas-tradicion-art-sherry-tour/","lat":36.69051,"lng":-6.13489,"score":4.9,"hood":"Jerez centro"},{"slug":"lustau-almacenista-bodega-tour","name":"Lustau Almacenista Bodega Tour","topic":"wine-tours","url":"/spain/jerez/wine-tours/lustau-almacenista-bodega-tour/","lat":36.69051,"lng":-6.13489,"score":4.7,"hood":"Santiago, Jerez"},{"slug":"hidalgo-manzanilla-sanlucar-tour","name":"Hidalgo La Gitana Sanlucar Tour","topic":"wine-tours","url":"/spain/jerez/wine-tours/hidalgo-manzanilla-sanlucar-tour/","lat":36.65863,"lng":-6.1557,"score":4.7,"hood":"Sanlucar de Barrameda centro"},{"slug":"marco-de-jerez-triangle-tour","name":"Jerez Triangle Sherry Tour","topic":"wine-tours","url":"/spain/jerez/wine-tours/marco-de-jerez-triangle-tour/","lat":36.69051,"lng":-6.13489,"score":4.6,"hood":"Jerez centro"},{"slug":"barbadillo-castle-santiago-tour","name":"Barbadillo Castle of Santiago Tour","topic":"wine-tours","url":"/spain/jerez/wine-tours/barbadillo-castle-santiago-tour/","lat":36.65863,"lng":-6.1557,"score":4.5,"hood":"Sanlucar de Barrameda centro"},{"slug":"williams-humbert-grand-bodega-tour","name":"Williams and Humbert Grand Bodega Tour","topic":"wine-tours","url":"/spain/jerez/wine-tours/williams-humbert-grand-bodega-tour/","lat":36.65863,"lng":-6.1557,"score":4.5,"hood":"Jerez norte"},{"slug":"osborne-el-puerto-cellar-tour","name":"Osborne El Puerto Cellar Tour","topic":"wine-tours","url":"/spain/jerez/wine-tours/osborne-el-puerto-cellar-tour/","lat":36.65863,"lng":-6.1557,"score":4.5,"hood":"El Puerto de Santa Maria"},{"slug":"osborne-brandy-el-puerto","name":"Osborne Brandy de Jerez","topic":"distilleries","url":"/spain/jerez/distilleries/osborne-brandy-el-puerto/","lat":36.65863,"lng":-6.1557,"score":4.6,"classification":"Brandy de Jerez DOP","hood":"El Puerto de Santa Maria"},{"slug":"gonzalez-byass-lepanto-brandy","name":"Gonzalez Byass Lepanto Brandy de Jerez","topic":"distilleries","url":"/spain/jerez/distilleries/gonzalez-byass-lepanto-brandy/","lat":36.69051,"lng":-6.13489,"score":4.7,"classification":"Brandy de Jerez DOP","hood":"Jerez centro"},{"slug":"williams-humbert-gran-duque-alba","name":"Williams and Humbert Gran Duque de Alba","topic":"distilleries","url":"/spain/jerez/distilleries/williams-humbert-gran-duque-alba/","lat":36.65863,"lng":-6.1557,"score":4.7,"classification":"Brandy de Jerez DOP","hood":"Jerez norte"},{"slug":"sanchez-romate-cardenal-mendoza","name":"Sanchez Romate Cardenal Mendoza","topic":"distilleries","url":"/spain/jerez/distilleries/sanchez-romate-cardenal-mendoza/","lat":36.69051,"lng":-6.13489,"score":4.8,"classification":"Brandy de Jerez DOP","hood":"Jerez centro"},{"slug":"fundador-domecq-brandy","name":"Fundador Domecq Brandy de Jerez","topic":"distilleries","url":"/spain/jerez/distilleries/fundador-domecq-brandy/","lat":36.69051,"lng":-6.13489,"score":4.5,"classification":"Brandy de Jerez DOP","hood":"Jerez centro"},{"slug":"bodegas-tradicion-brandy","name":"Bodegas Tradicion Brandy de Jerez","topic":"distilleries","url":"/spain/jerez/distilleries/bodegas-tradicion-brandy/","lat":36.69051,"lng":-6.13489,"score":4.7,"classification":"Brandy de Jerez DOP","hood":"Jerez centro"},{"slug":"bobadilla-jerez-brandy","name":"Bobadilla Gran Capitan Brandy de Jerez","topic":"distilleries","url":"/spain/jerez/distilleries/bobadilla-jerez-brandy/","lat":36.69051,"lng":-6.13489,"score":4.2,"classification":"Brandy de Jerez DOP","hood":"Jerez centro"},{"slug":"lustau-brandy-de-jerez","name":"Bodegas Lustau Brandy de Jerez","topic":"distilleries","url":"/spain/jerez/distilleries/lustau-brandy-de-jerez/","lat":36.69051,"lng":-6.13489,"score":4.6,"classification":"Brandy de Jerez DOP","hood":"Santiago, Jerez"},{"slug":"pedro-domecq-solera-gran-reserva","name":"Pedro Domecq Solera Gran Reserva","topic":"distilleries","url":"/spain/jerez/distilleries/pedro-domecq-solera-gran-reserva/","lat":36.69051,"lng":-6.13489,"score":4.4,"classification":"Brandy de Jerez DOP","hood":"Jerez centro"},{"slug":"valdespino-brandy-jerez","name":"Valdespino Brandy de Jerez","topic":"distilleries","url":"/spain/jerez/distilleries/valdespino-brandy-jerez/","lat":36.69051,"lng":-6.13489,"score":4.5,"classification":"Brandy de Jerez DOP","hood":"Jerez centro"},{"slug":"bodegas-tradicion-pinacoteca","name":"Bodegas Tradicion Pinacoteca","topic":"wine-museums","url":"/spain/jerez/wine-museums/bodegas-tradicion-pinacoteca/","lat":36.69051,"lng":-6.13489,"score":4.9,"hood":"Jerez centro"},{"slug":"museo-del-vino-jerez-consejo","name":"Sala de Exposiciones del Consejo Regulador","topic":"wine-museums","url":"/spain/jerez/wine-museums/museo-del-vino-jerez-consejo/","lat":36.69051,"lng":-6.13489,"score":4.5,"hood":"Jerez centro"},{"slug":"gonzalez-byass-historic-exhibit","name":"Gonzalez Byass Historic Cellar Exhibit","topic":"wine-museums","url":"/spain/jerez/wine-museums/gonzalez-byass-historic-exhibit/","lat":36.69051,"lng":-6.13489,"score":4.6,"hood":"Jerez centro"},{"slug":"williams-humbert-collection-jerez","name":"Williams and Humbert Dry Sack Collection","topic":"wine-museums","url":"/spain/jerez/wine-museums/williams-humbert-collection-jerez/","lat":36.65863,"lng":-6.1557,"score":4.3,"hood":"Jerez norte"},{"slug":"museo-andaluz-sanlucar","name":"Museo Arqueologico de Sanlucar de Barrameda","topic":"wine-museums","url":"/spain/jerez/wine-museums/museo-andaluz-sanlucar/","lat":36.65863,"lng":-6.1557,"score":4.2,"hood":"Sanlucar de Barrameda centro"},{"slug":"hotel-bodega-tio-pepe-jerez","name":"Hotel Bodega Tio Pepe","topic":"wine-hotels","url":"/spain/jerez/wine-hotels/hotel-bodega-tio-pepe-jerez/","lat":36.69051,"lng":-6.13489,"score":4.9,"hood":"Jerez centro"},{"slug":"hotel-casa-palacio-maria-luisa","name":"Hotel Casa Palacio Maria Luisa","topic":"wine-hotels","url":"/spain/jerez/wine-hotels/hotel-casa-palacio-maria-luisa/","lat":36.69051,"lng":-6.13489,"score":4.6,"hood":"Jerez centro"},{"slug":"hotel-las-cortes-cadiz","name":"Hotel Las Cortes de Cadiz","topic":"wine-hotels","url":"/spain/jerez/wine-hotels/hotel-las-cortes-cadiz/","lat":36.65863,"lng":-6.1557,"score":4.5,"hood":"Cadiz ciudad"},{"slug":"posada-de-palacio-sanlucar","name":"Posada de Palacio","topic":"wine-hotels","url":"/spain/jerez/wine-hotels/posada-de-palacio-sanlucar/","lat":36.65863,"lng":-6.1557,"score":4.4,"hood":"Sanlucar de Barrameda centro"},{"slug":"hotel-duques-medinaceli-el-puerto","name":"Hotel Duques de Medinaceli","topic":"wine-hotels","url":"/spain/jerez/wine-hotels/hotel-duques-medinaceli-el-puerto/","lat":36.65863,"lng":-6.1557,"score":4.5,"hood":"El Puerto de Santa Maria"},{"slug":"hotel-palacio-garvey-jerez","name":"Hotel Palacio Garvey","topic":"wine-hotels","url":"/spain/jerez/wine-hotels/hotel-palacio-garvey-jerez/","lat":36.69051,"lng":-6.13489,"score":4.5,"hood":"Jerez centro"},{"slug":"hacienda-el-recreo-jerez","name":"Hacienda El Recreo","topic":"wine-hotels","url":"/spain/jerez/wine-hotels/hacienda-el-recreo-jerez/","lat":36.6807,"lng":-6.12963,"score":4.3,"hood":"Jerez viticultural zone"},{"slug":"hotel-sherry-park-jerez","name":"Hotel Sherry Park","topic":"wine-hotels","url":"/spain/jerez/wine-hotels/hotel-sherry-park-jerez/","lat":36.69287,"lng":-6.13432,"score":4.2,"hood":"Jerez norte"},{"slug":"hotel-argantonio-cadiz","name":"Hotel Argantonio","topic":"wine-hotels","url":"/spain/jerez/wine-hotels/hotel-argantonio-cadiz/","lat":36.65863,"lng":-6.1557,"score":4.3,"hood":"Cadiz ciudad"},{"slug":"hotel-jerez-spa","name":"Hotel Jerez and Spa","topic":"wine-hotels","url":"/spain/jerez/wine-hotels/hotel-jerez-spa/","lat":36.69287,"lng":-6.13432,"score":4.6,"hood":"Jerez norte"},{"slug":"hotel-dona-blanca-el-puerto","name":"Hotel Dona Blanca","topic":"wine-hotels","url":"/spain/jerez/wine-hotels/hotel-dona-blanca-el-puerto/","lat":36.65863,"lng":-6.1557,"score":4.3,"hood":"El Puerto de Santa Maria"},{"slug":"hotel-solar-de-los-timoteos-jerez","name":"Solar de los Timoteos","topic":"wine-hotels","url":"/spain/jerez/wine-hotels/hotel-solar-de-los-timoteos-jerez/","lat":36.69051,"lng":-6.13489,"score":4.4,"hood":"Jerez centro"},{"slug":"vendimia-jerez-harvest-festival","name":"Fiesta de la Vendimia de Jerez","topic":"wine-experiences","url":"/spain/jerez/wine-experiences/vendimia-jerez-harvest-festival/","lat":36.69051,"lng":-6.13489,"score":4.9,"hood":"Jerez centro"},{"slug":"pisada-de-la-uva-ceremony","name":"Pisada de la Uva Grape Treading Ceremony","topic":"wine-experiences","url":"/spain/jerez/wine-experiences/pisada-de-la-uva-ceremony/","lat":36.69051,"lng":-6.13489,"score":4.8,"hood":"Jerez centro"},{"slug":"flor-development-comparative-tasting","name":"Flor Development and En Rama Comparative Tasting","topic":"wine-experiences","url":"/spain/jerez/wine-experiences/flor-development-comparative-tasting/","lat":36.69051,"lng":-6.13489,"score":4.8,"hood":"Santiago, Jerez"},{"slug":"equipo-navazos-la-bota-tasting","name":"Equipo Navazos La Bota Single-Cask Tasting","topic":"wine-experiences","url":"/spain/jerez/wine-experiences/equipo-navazos-la-bota-tasting/","lat":36.69051,"lng":-6.13489,"score":4.9,"hood":"Jerez centro"},{"slug":"vors-vertical-private-tasting-tradicion","name":"Bodegas Tradicion VORS Vertical Private Tasting","topic":"wine-experiences","url":"/spain/jerez/wine-experiences/vors-vertical-private-tasting-tradicion/","lat":36.69051,"lng":-6.13489,"score":4.9,"hood":"Jerez centro"},{"slug":"aponiente-plankton-sherry-pairing","name":"Aponiente Sherry and Marine Pairing Experience","topic":"wine-experiences","url":"/spain/jerez/wine-experiences/aponiente-plankton-sherry-pairing/","lat":36.65863,"lng":-6.1557,"score":4.9,"hood":"El Puerto de Santa Maria"},{"slug":"venencia-masterclass-jerez","name":"Venencia Masterclass at Consejo Regulador","topic":"wine-experiences","url":"/spain/jerez/wine-experiences/venencia-masterclass-jerez/","lat":36.69051,"lng":-6.13489,"score":4.6,"hood":"Jerez centro"},{"slug":"harvest-participation-gonzalez-byass","name":"Harvest Participation at Gonzalez Byass","topic":"wine-experiences","url":"/spain/jerez/wine-experiences/harvest-participation-gonzalez-byass/","lat":36.69051,"lng":-6.13489,"score":4.8,"hood":"Jerez centro"},{"slug":"en-rama-vs-filtered-comparison-barbadillo","name":"Barbadillo En Rama vs Filtered Manzanilla Comparison","topic":"wine-experiences","url":"/spain/jerez/wine-experiences/en-rama-vs-filtered-comparison-barbadillo/","lat":36.65863,"lng":-6.1557,"score":4.7,"hood":"Sanlucar de Barrameda centro"},{"slug":"solera-blending-workshop-lustau","name":"Solera Blending Workshop at Lustau","topic":"wine-experiences","url":"/spain/jerez/wine-experiences/solera-blending-workshop-lustau/","lat":36.69051,"lng":-6.13489,"score":4.7,"hood":"Santiago, Jerez"},{"slug":"bodegas-cota-45","name":"Bodegas Cota 45","topic":"hidden-gems","url":"/spain/jerez/hidden-gems/bodegas-cota-45/","lat":36.77614,"lng":-6.35348,"score":4.9,"classification":"DO Jerez-Xeres-Sherry","grape":"Palomino Fino","grape_slug":"palomino-fino","hood":"Sanlucar de Barrameda"},{"slug":"de-la-riva","name":"De la Riva (Willy Perez and Ramiro Ibanez)","topic":"hidden-gems","url":"/spain/jerez/hidden-gems/de-la-riva/","lat":36.68169,"lng":-6.13774,"score":4.9,"classification":"DO Jerez-Xeres-Sherry","grape":"Palomino Fino","grape_slug":"palomino-fino","hood":"Jerez de la Frontera"},{"slug":"bodegas-luis-perez","name":"Bodegas Luis Perez","topic":"hidden-gems","url":"/spain/jerez/hidden-gems/bodegas-luis-perez/","lat":36.68485,"lng":-6.14802,"score":4.8,"classification":"DO Jerez-Xeres-Sherry","grape":"Palomino Fino","grape_slug":"palomino-fino","hood":"Jerez de la Frontera"},{"slug":"tabanco-plateros","name":"Tabanco Plateros","topic":"hidden-gems","url":"/spain/jerez/hidden-gems/tabanco-plateros/","lat":36.68318,"lng":-6.13622,"score":4.7,"classification":"DO Jerez-Xeres-Sherry","grape":"Palomino Fino","grape_slug":"palomino-fino","hood":"Casco Antiguo, Jerez de la Frontera"},{"slug":"forlong-organic-biodynamic","name":"Forlong","topic":"hidden-gems","url":"/spain/jerez/hidden-gems/forlong-organic-biodynamic/","lat":36.6004,"lng":-6.22527,"score":4.8,"classification":"DO Jerez-Xeres-Sherry","grape":"Palomino Fino","grape_slug":"palomino-fino","hood":"El Puerto de Santa Maria"},{"slug":"equipo-navazos-la-bota","name":"Equipo Navazos La Bota Series","topic":"hidden-gems","url":"/spain/jerez/hidden-gems/equipo-navazos-la-bota/","lat":36.68169,"lng":-6.13774,"score":5.0,"classification":"DO Jerez-Xeres-Sherry","grape":"Palomino Fino","grape_slug":"palomino-fino","hood":"Jerez de la Frontera"},{"slug":"bodega-tradicion","name":"Bodega Tradicion","topic":"hidden-gems","url":"/spain/jerez/hidden-gems/bodega-tradicion/","lat":36.68323,"lng":-6.13834,"score":4.8,"classification":"DO Jerez-Xeres-Sherry","grape":"Palomino Fino","grape_slug":"palomino-fino","hood":"Casco Antiguo, Jerez de la Frontera"},{"slug":"bodegas-grant","name":"Bodegas Grant","topic":"hidden-gems","url":"/spain/jerez/hidden-gems/bodegas-grant/","lat":36.77621,"lng":-6.35877,"score":4.5,"classification":"DO Manzanilla-Sanlucar de Barrameda","grape":"Palomino Fino","grape_slug":"palomino-fino","hood":"Sanlucar de Barrameda"},{"slug":"forlong-biodynamic","name":"Forlong","topic":"dietary","diet":"biodynamic","url":"/spain/jerez/dietary/forlong-biodynamic/","lat":36.59961,"lng":-6.22842,"score":4.8},{"slug":"bodegas-luis-perez-biodynamic","name":"Bodegas Luis Perez (biodynamic parcels)","topic":"dietary","diet":"biodynamic","url":"/spain/jerez/dietary/bodegas-luis-perez-biodynamic/","lat":36.68485,"lng":-6.14802,"score":4.7},{"slug":"forlong-organic","name":"Forlong (CAAE organic certified)","topic":"dietary","diet":"organic","url":"/spain/jerez/dietary/forlong-organic/","lat":36.59961,"lng":-6.22842,"score":4.8},{"slug":"bodegas-luis-perez-organic","name":"Bodegas Luis Perez (CAAE organic certified)","topic":"dietary","diet":"organic","url":"/spain/jerez/dietary/bodegas-luis-perez-organic/","lat":36.68485,"lng":-6.14802,"score":4.7},{"slug":"bodegas-cota-45-natural","name":"Bodegas Cota 45","topic":"dietary","diet":"natural","url":"/spain/jerez/dietary/bodegas-cota-45-natural/","lat":36.65863,"lng":-6.1557,"score":4.9},{"slug":"forlong-natural","name":"Forlong","topic":"dietary","diet":"natural","url":"/spain/jerez/dietary/forlong-natural/","lat":36.59961,"lng":-6.22842,"score":4.8},{"slug":"de-la-riva-natural","name":"De la Riva","topic":"dietary","diet":"natural","url":"/spain/jerez/dietary/de-la-riva-natural/","lat":36.65863,"lng":-6.1557,"score":4.9},{"slug":"emilio-lustau-vegan","name":"Emilio Lustau","topic":"dietary","diet":"vegan_winemaking","url":"/spain/jerez/dietary/emilio-lustau-vegan/","lat":36.68668,"lng":-6.14415,"score":4.7},{"slug":"barbadillo-vegan-manzanilla","name":"Barbadillo Manzanilla and Oloroso Range","topic":"dietary","diet":"vegan_winemaking","url":"/spain/jerez/dietary/barbadillo-vegan-manzanilla/","lat":36.77251,"lng":-6.36065,"score":4.6},{"slug":"gonzalez-byass-tio-pepe-vegan","name":"Gonzalez Byass Tio Pepe Fino","topic":"dietary","diet":"vegan_winemaking","url":"/spain/jerez/dietary/gonzalez-byass-tio-pepe-vegan/","lat":36.68008,"lng":-6.14148,"score":4.7},{"slug":"forlong-lowsulfite","name":"Forlong Unfortified Range","topic":"dietary","diet":"lowsulfite","url":"/spain/jerez/dietary/forlong-lowsulfite/","lat":36.59961,"lng":-6.22842,"score":4.7}]}